regionCNC;N° auto;nom;region administrative;adresse;code INSEE;commune;population de la commune;DEP;N°UU;unite urbaine;population unite urbaine;situation geographique;ecrans;fauteuils;semaines d'activite;seances;entrees 2022;entrees 2021;evolution entrees;tranche d'entrees;programmateur;AE;categorie Art et Essai;label Art et Essai;genre;multiplexe;zone de la commune;nombre de films programmes;nombre de films inedits;nombre de films en semaine 1;PdM en entrees des films français;PdM en entrees des films americains;PdM en entrees des films europeens;PdM en entrees des autres films;films Art et Essai;PdM en entrees des films Art et Essai;latitude;longitude;geolocalisation
7;81545;CGR POLYGONE RIVIERA;PROVENCE-ALPES-COTE D'AZUR;AVENUE DES ALPES;6027;Cagnes-sur-Mer;52575.0;6;6701;Nice;966577.0;04-Unites urbaines de 100 000 hbts ou plus;10.0;1728.0;53.0;19500.0;381281.0;231660.0;64.58646291979626;De 300 à 450 000 entrees;CGR;NON;NON;;FIXE;OUI;B;206.0;177.0;174.0;28.60648780307783;53.820929043278376;12.627913474870702;4.944669678773085;21.0;2.2327194892423514;43.661565;7.1357;43.661565, 7.1357
7;279663;CINE LA STRADA;PROVENCE-ALPES-COTE D'AZUR;AVENUE DE CANNES;6084;Mouans-Sartoux;10397.0;6;6701;Nice;966577.0;04-Unites urbaines de 100 000 hbts ou plus;5.0;847.0;53.0;7833.0;170258.0;112743.0;51.0142536565463;De 150 à 200 000 entrees;;OUI;C;;FIXE;NON;B;276.0;226.0;130.0;40.71329729985453;43.887121382360945;11.597733912076736;3.8018474057077976;132.0;10.113422667975541;43.617882;6.97286;43.617882, 6.97286
7;23392;L EAU VIVE;PROVENCE-ALPES-COTE D'AZUR;AVENUE CHARLES DE GAULLE;5006;L' Argentière-la-Bessee;2324.0;5;5101;L'Argentière-la-Bessee;2324.0;06-autres communes et unites urbaines;1.0;159.0;53.0;660.0;8470.0;5664.0;49.5409604519774;De 5 à 10 000 entrees;;OUI;E;PR;FIXE;NON;I;291.0;245.0;4.0;64.6944982029306;20.16864805087089;11.197124688968758;3.9397290572297483;145.0;49.69588056400332;44.792274;6.558372;44.792274, 6.558372
7;104824;CINEMA LE REX;PROVENCE-ALPES-COTE D'AZUR;AVENUE LEO LAGRANGE;13027;Châteaurenard;16454.0;13;754;Avignon;470065.0;04-Unites urbaines de 100 000 hbts ou plus;3.0;329.0;50.0;2961.0;34002.0;16660.0;104.09363745498199;De 30 à 40 000 entrees;;OUI;C;;FIXE;NON;B;283.0;205.0;68.0;49.5754000178779;38.29444891391794;7.246506361550608;4.8836447066535555;143.0;19.722296713447157;43.885453;4.855476;43.885453, 4.855476
7;138595;CINE TOILES;PROVENCE-ALPES-COTE D'AZUR;AVENUE FRANCOIS CUZIN;4070;Digne-les-Bains;17804.0;4;4301;Digne-les-Bains;18681.0;06-autres communes et unites urbaines;4.0;767.0;53.0;5810.0;70764.0;42599.0;66.11657550646729;De 50 à 80 000 entrees;;OUI;E;RDJP;FIXE;NON;C;293.0;219.0;184.0;45.70927692838257;40.00603517645707;9.67927347971031;4.605414415450052;153.0;21.54845384526957;44.087669;6.231264;44.087669, 6.231264
7;250410;CHATEAU DE LA BUZINE;PROVENCE-ALPES-COTE D'AZUR;56 TRAVERSE DE LA BUZINE;13055;Marseille;876602.0;13;759;Marseille - Aix-en-Provence;1630325.0;04-Unites urbaines de 100 000 hbts ou plus;1.0;345.0;52.0;1276.0;22433.0;9941.0;125.66140227341313;De 20 à 30 000 entrees;;NON;NON;;FIXE;NON;C;106.0;77.0;6.0;54.99613501674826;26.518938417933523;14.388044318474618;4.096882246843597;42.0;21.700592630765268;43.294553;5.498707;43.294553, 5.498707
7;250412;GYPTIS;PROVENCE-ALPES-COTE D'AZUR;136 RUE LOUBON;13055;Marseille;876602.0;13;759;Marseille - Aix-en-Provence;1630325.0;04-Unites urbaines de 100 000 hbts ou plus;1.0;230.0;46.0;884.0;23431.0;5622.0;316.77339025257913;De 20 à 30 000 entrees;;OUI;A;RDJPPR;FIXE;NON;C;169.0;74.0;11.0;52.39376276590445;20.6994470183829;20.50017436357296;6.40661585213969;120.0;70.38808349524237;43.312724;5.384422;43.312724, 5.384422
7;306601;LE DAHUT;PROVENCE-ALPES-COTE D'AZUR;1 RUE SAINT JEAN;6094;Peone;886.0;6;0;Zone rurale;14908533.0;04-Unites urbaines de 100 000 hbts ou plus;1.0;251.0;25.0;306.0;5836.0;3280.0;77.92682926829269;De 5 à 10 000 entrees;;NON;NON;;FIXE;NON;R;92.0;78.0;7.0;42.32822455656965;47.90769760633718;5.75167900809368;4.012398828999483;28.0;11.692784570346133;44.0967176;6.928323500000033;44.0967176, 6.928323500000033
7;338342;CINEMA DE LA FORET BLANCHE;PROVENCE-ALPES-COTE D'AZUR;STATION DE RISOUL 1850;5119;Risoul;676.0;5;0;Zone rurale;14908533.0;04-Unites urbaines de 100 000 hbts ou plus;2.0;308.0;28.0;867.0;9447.0;4940.0;91.23481781376519;De 5 à 10 000 entrees;;NON;NON;;FIXE;NON;R;73.0;61.0;18.0;41.76906779661017;47.83898305084745;8.125;2.266949152542373;10.0;1.4830508474576272;44.647615;6.629737;44.647615, 6.629737
7;723920;ARTPLEXE;PROVENCE-ALPES-COTE D'AZUR;SQUARE LEON BLUM;13055;Marseille;876602.0;13;759;Marseille - Aix-en-Provence;1630325.0;04-Unites urbaines de 100 000 hbts ou plus;7.0;824.0;53.0;12787.0;104378.0;18533.0;463.200776992392;De 100 à 150 000 entrees;;NON;NON;;FIXE;NON;C;245.0;185.0;133.0;38.685382047050695;41.989676478489464;14.457727290171546;4.867214184288291;96.0;21.170894577272904;43.298607;5.383105;43.298607, 5.383105
7;75021;LA BOITE A IMAGES;PROVENCE-ALPES-COTE D'AZUR;PLACE DU 8 MAI 1945;83023;Brignoles;17964.0;83;83401;Brignoles;23948.0;05-Unites urbaines de 20 000 à 100 000 hbts;2.0;253.0;52.0;2167.0;40169.0;21057.0;90.76316664292159;De 40 à 50 000 entrees;;OUI;D;;FIXE;NON;C;165.0;127.0;61.0;43.04706601466993;45.01833740831296;8.333333333333332;3.601263243683782;71.0;14.657192339038305;43.407348;6.063887;43.407348, 6.063887
7;81541;ESPACE  CENTRE;PROVENCE-ALPES-COTE D'AZUR;5 AV DE VERDUN;6027;Cagnes-sur-Mer;52575.0;6;6701;Nice;966577.0;04-Unites urbaines de 100 000 hbts ou plus;1.0;290.0;52.0;586.0;12239.0;4289.0;185.35789228258338;De 10 à 20 000 entrees;;NON;NON;;FIXE;NON;B;249.0;204.0;2.0;76.54362416107384;5.302013422818792;12.59228187919463;5.5620805369127515;163.0;58.808724832214764;43.662147;7.148711;43.662147, 7.148711
7;122243;CINEMA MARCEL PAGNOL;PROVENCE-ALPES-COTE D'AZUR;RUE BONAVENTURE;83046;Cotignac;2145.0;83;83204;Carcès;7098.0;06-autres communes et unites urbaines;1.0;54.0;48.0;342.0;6696.0;3993.0;67.69346356123216;De 5 à 10 000 entrees;;OUI;E;;FIXE;NON;C;195.0;164.0;0.0;73.98076042143839;9.421285692472132;12.093449381584975;4.504504504504505;121.0;57.99358680714612;43.527138;6.149835;43.527138, 6.149835
7;183942;ESPACE ROBERT HOSSEIN;PROVENCE-ALPES-COTE D'AZUR;BOULEVARD VICTOR JAUFFRET;13044;Grans;5286.0;13;13501;Salon-de-Provence;62587.0;05-Unites urbaines de 20 000 à 100 000 hbts;1.0;295.0;50.0;985.0;15731.0;8380.0;87.72076372315037;De 10 à 20 000 entrees;;OUI;D;RDJPPR;FIXE;NON;B;259.0;189.0;0.0;64.64988822384076;11.11992500180284;12.33143434052066;11.898752433835726;186.0;58.419268767577705;43.608373;5.064398;43.608373, 5.064398
7;306521;PATHE;PROVENCE-ALPES-COTE D'AZUR;CHEMIN DES  PENNES AUX PINS;13071;Les Pennes-Mirabeau;22174.0;13;759;Marseille - Aix-en-Provence;1630325.0;04-Unites urbaines de 100 000 hbts ou plus;16.0;3507.0;53.0;29080.0;1124133.0;665249.0;68.97928444837949;De 1 à 1,5 million d'entrees;PATHE-GAUMONT;NON;NON;;FIXE;OUI;B;255.0;200.0;199.0;25.35535396041547;56.91541771018975;13.421015442833253;4.308212886561516;55.0;3.9721919088032784;43.413496;5.356466;43.413496, 5.356466
7;39442;L ODEON;PROVENCE-ALPES-COTE D'AZUR;RUE BARRI;83012;Barjols;3056.0;83;83109;Barjols;3056.0;06-autres communes et unites urbaines;1.0;131.0;29.0;287.0;3247.0;;;De 2 à 5 000 entrees;;NON;NON;;FIXE;NON;I;110.0;99.0;3.0;44.62474645030426;26.267748478701826;17.37660581473969;11.730899256254226;78.0;65.72008113590265;43.558187;6.006581;43.558187, 6.006581
7;84711;OLYMPIA;PROVENCE-ALPES-COTE D'AZUR;5 RUE D ANTIBES;6029;Cannes;73159.0;6;6701;Nice;966577.0;04-Unites urbaines de 100 000 hbts ou plus;4.0;727.0;53.0;6549.0;73864.0;54155.0;36.393684793647864;De 50 à 80 000 entrees;AUBERT;NON;NON;;FIXE;NON;B;150.0;111.0;71.0;33.464027198947136;48.91834832200044;12.896194340864225;4.721430138188199;11.0;1.6067119982452291;43.552366;7.016598;43.552366, 7.016598
7;86693;L ARTEA;PROVENCE-ALPES-COTE D'AZUR;AVENUE CARDINAL DE LAVIGERIE;13119;Carnoux-en-Provence;6706.0;13;13209;Carnoux-en-Provence;6706.0;06-autres communes et unites urbaines;1.0;306.0;36.0;162.0;1588.0;1099.0;44.49499545040947;Moins de 2000 entrees;;NON;NON;;FIXE;NON;I;133.0;119.0;1.0;71.03580562659847;18.925831202046037;6.32992327365729;3.70843989769821;35.0;23.84910485933504;43.256071;5.568869;43.256071, 5.568869
7;86772;SALLE DES FETES;PROVENCE-ALPES-COTE D'AZUR;BOULODROME;84030;Caromb;3505.0;84;754;Avignon;470065.0;04-Unites urbaines de 100 000 hbts ou plus;1.0;200.0;44.0;169.0;4748.0;1617.0;193.63017934446506;De 2 à 5 000 entrees;;NON;NON;;ITINERANT;NON;B;103.0;65.0;0.0;70.88279732354846;17.5480250377725;4.101014461472048;7.468163177206994;59.0;49.19058925102525;44.109395;5.112026;44.109395, 5.112026
7;116021;RAIMU;PROVENCE-ALPES-COTE D'AZUR;AVENUE GEORGE CLEMENCEAU;83042;Cogolin;12007.0;83;83305;Cogolin;12007.0;06-autres communes et unites urbaines;1.0;130.0;52.0;1261.0;13296.0;9316.0;42.72219836839846;De 10 à 20 000 entrees;;OUI;E;;FIXE;NON;I;210.0;191.0;51.0;53.273033880116515;30.45377893607236;13.513720680668403;2.759466503142726;101.0;21.884102406868006;43.250728;6.537455;43.250728, 6.537455
7;463372;SALLE DES FETESF.MISTRAL;PROVENCE-ALPES-COTE D'AZUR;SALLE DES FETES;84150;Visan;1962.0;84;0;Zone rurale;14908533.0;04-Unites urbaines de 100 000 hbts ou plus;1.0;130.0;49.0;260.0;6114.0;2917.0;109.59890298251626;De 5 à 10 000 entrees;;OUI;E;JP;ITINERANT;NON;R;117.0;88.0;0.0;60.2537398220034;12.081045256580193;16.152243893202044;11.512971028214352;67.0;60.70819920469608;44.312781;4.951099;44.312781, 4.951099
7;720150;PATHE CINE LIBERTE;PROVENCE-ALPES-COTE D'AZUR;46 BOULEVARD MARECHAL LECLERC;83137;Toulon;181506.0;83;757;Toulon;598427.0;04-Unites urbaines de 100 000 hbts ou plus;9.0;1605.0;53.0;15616.0;264264.0;165088.0;60.07462686567165;De 200 à 300 000 entrees;PATHE-GAUMONT;NON;NON;;FIXE;OUI;C;287.0;226.0;167.0;41.384384292327034;42.25115723000521;11.986910272523835;4.377548205143926;128.0;14.609454032678338;43.123515;5.948704;43.123515, 5.948704
7;84782;ALEXANDRE III;PROVENCE-ALPES-COTE D'AZUR;19 BD ALEXANDRE III;6029;Cannes;73159.0;6;6701;Nice;966577.0;04-Unites urbaines de 100 000 hbts ou plus;1.0;176.0;24.0;32.0;3201.0;1992.0;60.69277108433735;De 2 à 5 000 entrees;;NON;NON;;FIXE;NON;B;24.0;3.0;0.0;81.15147361206306;1.8505825908156273;11.343385880740232;5.6545579163810835;11.0;31.45990404386566;43.546541;7.036474;43.546541, 7.036474
7;202292;LE COLUCHE;PROVENCE-ALPES-COTE D'AZUR;ALLEES JEAN JAURES;13047;Istres;45119.0;13;759;Marseille - Aix-en-Provence;1630325.0;04-Unites urbaines de 100 000 hbts ou plus;4.0;435.0;53.0;6006.0;72429.0;46410.0;56.06334841628959;De 50 à 80 000 entrees;;OUI;C;JPPR;FIXE;NON;B;321.0;246.0;104.0;36.415495212317005;43.054221601327164;14.40525044384295;6.125032742512879;182.0;16.999912686632324;43.514195;4.987268;43.514195, 4.987268
7;146762;LE ROC;PROVENCE-ALPES-COTE D'AZUR;BOULEVARD PASTEUR;5046;Embrun;6781.0;5;5201;Embrun;7422.0;06-autres communes et unites urbaines;2.0;388.0;51.0;1957.0;41411.0;23114.0;79.15981656139137;De 40 à 50 000 entrees;;OUI;E;;FIXE;NON;C;233.0;198.0;80.0;53.16931617461519;34.24930608125158;8.082260913449407;4.499116830683826;108.0;26.656573303053243;44.564376;6.493852;44.564376, 6.493852
7;232943;LE CINEMA;PROVENCE-ALPES-COTE D'AZUR;BOULEVARD CLEMENCEAU;83072;Lorgues;9589.0;83;83303;Lorgues;11411.0;06-autres communes et unites urbaines;1.0;120.0;52.0;657.0;11339.0;5863.0;93.39928364318608;De 10 à 20 000 entrees;;OUI;E;RD;FIXE;NON;C;236.0;180.0;4.0;58.34004024144869;16.53923541247485;17.474849094567404;7.645875251509055;180.0;71.89134808853119;43.493104;6.361864;43.493104, 6.361864
7;279662;PLEIN AIR LE CHATEAU;PROVENCE-ALPES-COTE D'AZUR;13 PLACE SUZANNE VILLENEUVE;6084;Mouans-Sartoux;10397.0;6;6701;Nice;966577.0;04-Unites urbaines de 100 000 hbts ou plus;1.0;200.0;8.0;9.0;1136.0;559.0;103.22003577817532;Moins de 2000 entrees;;NON;NON;;FIXE;NON;B;8.0;8.0;0.0;40.228873239436616;57.3943661971831;0.0;2.3767605633802815;0.0;0.0;43.620396;6.969027;43.620396, 6.969027
7;321343;LE MELIES;PROVENCE-ALPES-COTE D'AZUR;12 RUE DENIS PAPIN;13077;Port-de-Bouc;16422.0;13;759;Marseille - Aix-en-Provence;1630325.0;04-Unites urbaines de 100 000 hbts ou plus;1.0;155.0;53.0;1606.0;19692.0;9338.0;110.88027414863997;De 10 à 20 000 entrees;;OUI;C;RDJPPR;FIXE;NON;B;460.0;338.0;15.0;47.6229034123771;27.33371891266628;18.345864661654137;6.697513013302488;286.0;44.46500867553499;43.404425;4.98382;43.404425, 4.98382
7;21532;LE CESAR;PROVENCE-ALPES-COTE D'AZUR;RUE SCUDERY;84003;Apt;11116.0;84;84302;Apt;15178.0;06-autres communes et unites urbaines;3.0;432.0;53.0;4280.0;43743.0;27503.0;59.048103843217106;De 40 à 50 000 entrees;;OUI;E;RDJPPR;FIXE;NON;C;293.0;215.0;144.0;52.47723806442668;31.748856126080327;9.058557101261727;6.715348708231271;157.0;32.39589591902759;43.875034;5.396362;43.875034, 5.396362
7;90324;LE PARADISO;PROVENCE-ALPES-COTE D'AZUR;60 RUE JEAN MERMOZ;84035;CAVAILLON;26206.0;84;754;Avignon;470065.0;04-Unites urbaines de 100 000 hbts ou plus;2.0;204.0;53.0;2138.0;14583.0;11016.0;32.380174291939;De 10 à 20 000 entrees;;NON;NON;;FIXE;NON;B;185.0;157.0;103.0;77.49434272783378;2.0366179798395394;12.27456627580059;8.194473016526093;176.0;96.55077830350407;43.834963;5.042283;43.834963, 5.042283
7;172741;PALACE;PROVENCE-ALPES-COTE D'AZUR;63 RUE CARNOT;5061;Gap;41528.0;5;5401;Gap;42010.0;05-Unites urbaines de 20 000 à 100 000 hbts;6.0;640.0;53.0;8604.0;114295.0;67057.0;70.44454717628285;De 100 à 150 000 entrees;;NON;NON;;FIXE;NON;C;159.0;134.0;127.0;38.29534493229967;46.9481261834161;11.237540638062233;3.518988246222;29.0;7.171948126183417;44.557036;6.078807;44.557036, 6.078807
7;362614;LE CASINO JOA;PROVENCE-ALPES-COTE D'AZUR;1 AVENUE DU DOCTEUR MAZEN;83126;La Seyne-sur-Mer;62999.0;83;757;Toulon;598427.0;04-Unites urbaines de 100 000 hbts ou plus;1.0;200.0;25.0;58.0;2137.0;1427.0;49.75473020322354;De 2 à 5 000 entrees;;NON;NON;;ITINERANT;NON;B;43.0;29.0;2.0;54.4220870379036;14.085166120729994;29.01263453439401;2.480112306972391;21.0;37.43565746373421;43.103927;5.878774;43.103927, 5.878774
7;421932;REX;PROVENCE-ALPES-COTE D'AZUR;46 RUE MONGE;13108;Tarascon;15639.0;13;456;Beaucaire;31439.0;05-Unites urbaines de 20 000 à 100 000 hbts;2.0;336.0;50.0;1812.0;19040.0;10605.0;79.53795379537954;De 10 à 20 000 entrees;;OUI;D;;FIXE;NON;B;159.0;135.0;51.0;43.48720654180955;40.073859140068585;11.849116328145607;4.589817989976259;53.0;12.360854655763651;43.806585;4.660803;43.806585, 4.660803
7;462644;LE MOULIN DE SAINT ANDRE;PROVENCE-ALPES-COTE D'AZUR;ROUTE DE MANOSQUE;83150;Vinon-sur-Verdon;4381.0;83;83112;Vinon-sur-Verdon;4381.0;06-autres communes et unites urbaines;1.0;160.0;53.0;743.0;5360.0;2756.0;94.48476052249637;De 5 à 10 000 entrees;;NON;NON;;FIXE;NON;I;152.0;132.0;6.0;54.170794531404795;29.046958589260946;11.84862294432336;4.933623935010897;33.0;11.967505448781454;43.733221;5.808646;43.733221, 5.808646
7;160410;NOTRE DAME DES SALLE;PROVENCE-ALPES-COTE D'AZUR;CINEMA SALLE ARTEA;83057;Flassans-sur-Issole;3650.0;83;83108;Flassans-sur-Issole;3650.0;06-autres communes et unites urbaines;1.0;96.0;52.0;305.0;6499.0;3394.0;91.48497348261637;De 5 à 10 000 entrees;;OUI;E;;ITINERANT;NON;I;154.0;114.0;2.0;49.79197869861874;27.67515393576302;18.655350307871526;3.8775170577467133;97.0;58.29588949908471;43.382416;6.204033;43.382416, 6.204033
7;217372;Cinema Theâtre le Phenix;PROVENCE-ALPES-COTE D'AZUR;1 RUE DE LA PAIX;5070;Laragne-Monteglin;3631.0;5;5104;Laragne-Monteglin;3986.0;06-autres communes et unites urbaines;1.0;162.0;52.0;1118.0;12739.0;6562.0;94.13288631514783;De 10 à 20 000 entrees;;OUI;E;JPPR;FIXE;NON;C;260.0;220.0;3.0;59.329656342808654;27.450148493848115;9.079338141705557;4.140857021637675;125.0;30.453966907085277;44.314841;5.822237;44.314841, 5.822237
7;220335;LE GRAND BLEU;PROVENCE-ALPES-COTE D'AZUR;LA BAOU;83070;Le Lavandou;6048.0;83;83308;Bormes-les-Mimosas - Le Lavandou;14984.0;06-autres communes et unites urbaines;3.0;406.0;53.0;4453.0;74851.0;39560.0;89.20879676440849;De 50 à 80 000 entrees;;NON;NON;;FIXE;NON;B;289.0;218.0;89.0;56.141207092890845;31.79599804782821;8.052708638360176;4.010086220920774;144.0;10.686784881514019;43.137825;6.355187;43.137825, 6.355187
7;13405;RENOIR;PROVENCE-ALPES-COTE D'AZUR;24 COURS MIRABEAU;13001;Aix-en-Provence;150358.0;13;759;Marseille - Aix-en-Provence;1630325.0;04-Unites urbaines de 100 000 hbts ou plus;3.0;431.0;53.0;4292.0;117882.0;60916.0;93.51566091010572;De 100 à 150 000 entrees;PATHE-GAUMONT;OUI;C;RD;FIXE;NON;B;145.0;113.0;97.0;66.70717922130903;11.873294860571653;8.2679608019786;13.151565116140713;132.0;91.04105933247776;43.526562;5.448932;43.526562, 5.448932
7;84781;MIRAMAR;PROVENCE-ALPES-COTE D'AZUR;RUE PASTEUR - ANGLE CROISETTE;6029;Cannes;73159.0;6;6701;Nice;966577.0;04-Unites urbaines de 100 000 hbts ou plus;1.0;370.0;34.0;111.0;12652.0;8595.0;47.20186154741128;De 10 à 20 000 entrees;;NON;NON;;FIXE;NON;B;85.0;23.0;1.0;73.61392832995267;5.992224475997295;13.480392156862745;6.913455037187289;43.0;38.91142663962137;43.550134;7.029043;43.550134, 7.029043
7;184053;CINEMA  STUDIO;PROVENCE-ALPES-COTE D'AZUR;15 RUE DU JEU DE BALLON;6069;Grasse;49607.0;6;6701;Nice;966577.0;04-Unites urbaines de 100 000 hbts ou plus;2.0;230.0;47.0;1682.0;10700.0;5344.0;100.22455089820359;De 10 à 20 000 entrees;;OUI;C;;FIXE;NON;B;353.0;286.0;13.0;57.47978436657682;16.220639199075855;17.78975741239892;8.509819021948402;215.0;60.627647285329225;43.659584;6.922053;43.659584, 6.922053
7;299451;L UBAC;PROVENCE-ALPES-COTE D'AZUR;PLACE EMILE HODOUL;5098;Les Orres;543.0;5;0;Zone rurale;14908533.0;04-Unites urbaines de 100 000 hbts ou plus;1.0;255.0;31.0;263.0;7139.0;3952.0;80.64271255060729;De 5 à 10 000 entrees;;NON;NON;;FIXE;NON;R;78.0;68.0;27.0;39.0688542981349;51.38129294629085;6.240358995933249;3.3094937596410037;6.0;2.341887533305287;44.493107;6.556982;44.493107, 6.556982
7;351621;A B C;PROVENCE-ALPES-COTE D'AZUR;20 RUE DU GENERAL GALLIENI;83123;Sanary-sur-Mer;17440.0;83;757;Toulon;598427.0;04-Unites urbaines de 100 000 hbts ou plus;1.0;234.0;53.0;2108.0;47049.0;24990.0;88.27130852340936;De 40 à 50 000 entrees;;NON;NON;;FIXE;NON;B;155.0;143.0;119.0;67.39167447007746;23.612411679577765;5.322635566527624;3.6732782838171447;53.0;23.791180726994128;43.117504;5.799215;43.117504, 5.799215
7;440286;SALLE HENRI VERNEUIL;PROVENCE-ALPES-COTE D'AZUR;LA COUPIANE;83144;La Valette-du-Var;24377.0;83;757;Toulon;598427.0;04-Unites urbaines de 100 000 hbts ou plus;1.0;109.0;53.0;981.0;14749.0;5274.0;179.65491088357984;De 10 à 20 000 entrees;;OUI;C;;FIXE;NON;B;223.0;184.0;1.0;64.87116131309566;20.28238616307801;9.290504765266503;5.555947758559831;115.0;41.369572890928346;43.131815;5.988887;43.131815, 5.988887
7;703300;RELAIS CULTUREL;PROVENCE-ALPES-COTE D'AZUR;AVENUE VAN GOGH;13096;Saintes-Maries-de-la-Mer;2145.0;13;13101;Saintes-Maries-de-la-Mer;2145.0;06-autres communes et unites urbaines;1.0;380.0;49.0;116.0;4163.0;1917.0;117.1622326551904;De 2 à 5 000 entrees;;NON;NON;;FIXE;NON;I;56.0;50.0;0.0;57.49506903353058;28.624260355029584;11.168639053254438;2.712031558185404;10.0;11.78500986193294;43.450397;4.427827;43.450397, 4.427827
7;90313;LA CIGALE;PROVENCE-ALPES-COTE D'AZUR;79 AV DU MARECHAL JOFFRE;84035;Cavaillon;26206.0;84;754;Avignon;470065.0;04-Unites urbaines de 100 000 hbts ou plus;1.0;360.0;53.0;659.0;18016.0;14051.0;28.218632125827337;De 10 à 20 000 entrees;;NON;NON;;FIXE;NON;B;127.0;59.0;35.0;33.604638198238376;48.40561935555803;14.722934552346972;3.266807893856617;57.0;13.01705875794403;43.834515;5.041736;43.834515, 5.041736
7;112825;CINEMA EDEN THEATRE;PROVENCE-ALPES-COTE D'AZUR;25 BOULEVARD CLEMENCEAU;13028;La Ciotat;36812.0;13;757;Toulon;598427.0;04-Unites urbaines de 100 000 hbts ou plus;1.0;142.0;49.0;1016.0;21415.0;12602.0;69.9333439136645;De 20 à 30 000 entrees;;OUI;C;JPPR;FIXE;NON;B;304.0;199.0;3.0;67.42941893108745;12.341755389586313;12.098098416229673;8.130727263096563;218.0;63.76926744001271;43.177341;5.610704;43.177341, 5.610704
7;364961;SALLE COMMUNALE;PROVENCE-ALPES-COTE D'AZUR;SALLE COMMUNALE;83131;Solliès-Toucas;5975.0;83;757;Toulon;598427.0;04-Unites urbaines de 100 000 hbts ou plus;1.0;150.0;6.0;10.0;635.0;103.0;516.5048543689321;Moins de 2000 entrees;;NON;NON;;ITINERANT;NON;B;9.0;7.0;0.0;86.92913385826772;9.763779527559056;3.3070866141732282;0.0;0.0;0.0;43.19314;6.005894;43.19314, 6.005894
7;438461;CINEMA DE PRA LOU;PROVENCE-ALPES-COTE D'AZUR;PRA LOU;4226;Uvernet-Fours;574.0;4;0;Zone rurale;14908533.0;04-Unites urbaines de 100 000 hbts ou plus;1.0;200.0;25.0;297.0;4011.0;2430.0;65.06172839506172;De 2 à 5 000 entrees;;NON;NON;;FIXE;NON;R;93.0;78.0;33.0;49.71328845674395;38.494141111942156;7.080528546497133;4.712041884816754;15.0;8.202443280977311;44.369873;6.605179;44.369873, 6.605179
7;456305;LA CITADELLE PLEIN AIR.;PROVENCE-ALPES-COTE D'AZUR;LA CITADELLE PLEIN AIR;6159;Villefranche-sur-Mer;5037.0;6;6701;Nice;966577.0;04-Unites urbaines de 100 000 hbts ou plus;1.0;400.0;51.0;135.0;7642.0;5988.0;27.621910487641955;De 5 à 10 000 entrees;;NON;NON;;ITINERANT;NON;B;92.0;85.0;4.0;27.479717351478673;54.9201779638838;5.469772310913373;12.130332373724157;21.0;9.44778853703219;43.701093;7.311425;43.701093, 7.311425
7;721250;CINEMAS LIDO 1;PROVENCE-ALPES-COTE D'AZUR;AVENUE VICTOR HUGO;83118;Saint-Raphaël;36460.0;83;83502;Frejus;101231.0;04-Unites urbaines de 100 000 hbts ou plus;7.0;1305.0;53.0;10307.0;248669.0;144536.0;72.04641058283056;De 200 à 300 000 entrees;;NON;NON;;FIXE;NON;B;216.0;181.0;174.0;39.813475939284764;45.43787512824034;10.52540168509827;4.2232472473766265;51.0;6.667689896680695;43.42402;6.769447;43.42402, 6.769447
7;434682;LE CASINO;PROVENCE-ALPES-COTE D'AZUR;RUE DU DOCTEUR WILLEMUS;13110;Trets;10680.0;13;759;Marseille - Aix-en-Provence;1630325.0;04-Unites urbaines de 100 000 hbts ou plus;1.0;220.0;50.0;288.0;5574.0;2754.0;102.39651416122007;De 5 à 10 000 entrees;;NON;NON;;FIXE;NON;B;100.0;78.0;8.0;52.99605310369573;30.6243272335845;10.279870828848225;6.099748833871547;45.0;25.56512378902045;43.447455;5.684694;43.447455, 5.684694
7;263261;COMOEDIA;PROVENCE-ALPES-COTE D'AZUR;15 RUE LOUIS CASTAGNE;13063;Miramas;26807.0;13;759;Marseille - Aix-en-Provence;1630325.0;04-Unites urbaines de 100 000 hbts ou plus;1.0;165.0;50.0;1396.0;20299.0;7304.0;177.91621029572835;De 20 à 30 000 entrees;;OUI;C;JP;FIXE;NON;B;262.0;178.0;3.0;55.61702127659574;20.814589665653497;14.127659574468085;9.440729483282674;171.0;54.75379939209727;43.581558;5.001721;43.581558, 5.001721
7;297871;FORUM;PROVENCE-ALPES-COTE D'AZUR;RUE DU PARLEMENT;84087;Orange;29103.0;84;754;Avignon;470065.0;04-Unites urbaines de 100 000 hbts ou plus;3.0;283.0;53.0;3029.0;30580.0;18781.0;62.8241307704595;De 30 à 40 000 entrees;;OUI;C;;FIXE;NON;B;160.0;127.0;68.0;51.27969850893004;36.11338685892184;9.847615926593479;2.759298705554645;59.0;15.906931017532361;44.137785;4.809487;44.137785, 4.809487
7;418651;LE CINEMATOGRAPHE;PROVENCE-ALPES-COTE D'AZUR;PLACE DE LA MAIRIE;4197;Sainte-Tulle;3559.0;4;4401;Manosque;32595.0;05-Unites urbaines de 20 000 à 100 000 hbts;1.0;218.0;46.0;332.0;4533.0;2571.0;76.31271878646442;De 2 à 5 000 entrees;;OUI;D;;FIXE;NON;B;222.0;193.0;0.0;64.67025572005383;19.358456707043516;8.793180798564379;7.178106774338268;113.0;45.98474652310453;43.786667;5.762877;43.786667, 5.762877
7;33791;UTOPIA MANUTENTION 1;PROVENCE-ALPES-COTE D'AZUR;4 RUE DES ESCALIERS SAINTE ANNE;84007;Avignon;92277.0;84;754;Avignon;470065.0;04-Unites urbaines de 100 000 hbts ou plus;4.0;456.0;53.0;8109.0;153420.0;86976.0;76.39348785871964;De 150 à 200 000 entrees;;OUI;B;RDJPPR;FIXE;NON;C;479.0;264.0;200.0;65.59169861780076;9.712235123961303;14.612015445701266;10.08405081253667;404.0;92.02199511522875;43.951249;4.808538;43.951249, 4.808538
7;15741;CINEMA DE L AIGUILLE;PROVENCE-ALPES-COTE D'AZUR;RESIDENCE DE L AIGUILLE;4006;Allos;845.0;4;0;Zone rurale;14908533.0;04-Unites urbaines de 100 000 hbts ou plus;1.0;187.0;34.0;378.0;6911.0;3739.0;84.83551751805297;De 5 à 10 000 entrees;;NON;NON;;FIXE;NON;R;140.0;116.0;41.0;44.400904295403166;41.64280331574981;7.97287113790505;5.983421250941975;41.0;8.907309721175585;44.283294;6.539965;44.283294, 6.539965
7;86781;RIVOLI;PROVENCE-ALPES-COTE D'AZUR;56 AVENUE VICTOR HUGO;84031;Carpentras;30564.0;84;754;Avignon;470065.0;04-Unites urbaines de 100 000 hbts ou plus;4.0;612.0;53.0;5820.0;112846.0;69787.0;61.700603264218266;De 100 à 150 000 entrees;;OUI;C;RDJPPR;FIXE;NON;B;262.0;178.0;136.0;57.7080829120138;26.770230219392015;9.37944450051843;6.142242368075755;150.0;38.4968297807915;44.050347;5.047636;44.050347, 5.047636
7;90345;CINEMA ATHENA;PROVENCE-ALPES-COTE D'AZUR;SQUARE DE LATTRE DE TASSIGNY;83036;Cavalaire-sur-Mer;7735.0;83;83207;Cavalaire-sur-Mer;11608.0;06-autres communes et unites urbaines;1.0;132.0;44.0;1010.0;7957.0;7056.0;12.76927437641724;De 5 à 10 000 entrees;;NON;NON;;FIXE;NON;C;169.0;141.0;11.0;61.477403661503004;30.80271412111125;4.058379208808091;3.6615030085776468;90.0;26.37306362821662;43.172524;6.530347;43.172524, 6.530347
7;168953;CINEMA DU PIN DE LA LEGUE PLEIN AIR;PROVENCE-ALPES-COTE D'AZUR;2700 ROUTE DEPARTEMENTALE 4;83061;Frejus;56598.0;83;83502;Frejus;101231.0;04-Unites urbaines de 100 000 hbts ou plus;1.0;450.0;11.0;71.0;8321.0;7321.0;13.659336156262803;De 5 à 10 000 entrees;;NON;NON;;FIXE;NON;C;33.0;33.0;8.0;37.60365340704242;50.919360653767576;5.61230621319553;5.864679725994472;10.0;8.520610503545246;43.3974611;6.718800399999964;43.3974611, 6.718800399999964
7;172744;LE CLUB;PROVENCE-ALPES-COTE D'AZUR;RUE BON HOTEL;5061;Gap;41528.0;5;5401;Gap;42010.0;05-Unites urbaines de 20 000 à 100 000 hbts;1.0;104.0;53.0;1396.0;15525.0;7296.0;112.78782894736841;De 10 à 20 000 entrees;;OUI;D;RD;FIXE;NON;C;118.0;82.0;56.0;75.24879832103446;2.0580867916864127;6.208110486764607;16.485004400514523;113.0;94.00176020580868;44.55986;6.07839;44.55986, 6.07839
7;235561;LE CINEMA;PROVENCE-ALPES-COTE D'AZUR;11 RUE DE LA REPUBLIQUE;83073;Le Luc;11166.0;83;83307;Le Luc;15552.0;06-autres communes et unites urbaines;1.0;100.0;48.0;548.0;8009.0;4609.0;73.7687133868518;De 5 à 10 000 entrees;;OUI;E;;FIXE;NON;C;160.0;138.0;4.0;57.25259249775957;28.152605300217644;8.091153501472283;6.503648700550506;63.0;17.91063884265779;43.395569;6.311016;43.395569, 6.311016
7;290093;CINEMA JEAN PAUL BELMONDO;PROVENCE-ALPES-COTE D'AZUR;16 PLACE GARIBALDI;6088;Nice;346376.0;6;6701;Nice;966577.0;04-Unites urbaines de 100 000 hbts ou plus;3.0;154.0;48.0;4028.0;52516.0;22870.0;129.62833406209006;De 50 à 80 000 entrees;;OUI;A;RDJPPR;FIXE;NON;C;508.0;365.0;110.0;71.40294707606851;5.597130072519673;16.43650671192717;6.563416139484647;375.0;69.92362289770098;43.700772;7.280789;43.700772, 7.280789
7;310645;FOYER JEUNESSE ET CULTURE;PROVENCE-ALPES-COTE D'AZUR;FOYER JEUNESSE;83091;Pierrefeu-du-Var;6188.0;83;83201;Pierrefeu-du-Var;6188.0;06-autres communes et unites urbaines;1.0;100.0;48.0;320.0;7659.0;4133.0;85.31333172030003;De 5 à 10 000 entrees;;OUI;E;;ITINERANT;NON;I;103.0;76.0;10.0;60.541766746730715;19.30878035761943;17.74753135842007;2.401921537229784;46.0;31.331732052308514;43.22419;6.144814;43.22419, 6.144814
7;350023;LA TOMETTE;PROVENCE-ALPES-COTE D'AZUR;QUARTIER LES PLANTIERS;83121;Salernes;3848.0;83;83202;Salernes;6170.0;06-autres communes et unites urbaines;1.0;172.0;50.0;524.0;5320.0;3820.0;39.26701570680628;De 5 à 10 000 entrees;;OUI;E;;FIXE;NON;C;118.0;89.0;7.0;57.361376673040155;31.03250478011472;7.2848948374761;4.321223709369025;60.0;32.409177820267686;43.561544;6.236388;43.561544, 6.236388
7;441352;REX;PROVENCE-ALPES-COTE D'AZUR;PLACE CARDINAL MAURY;84138;Valreas;9616.0;84;84204;Valreas;9616.0;06-autres communes et unites urbaines;2.0;807.0;49.0;2616.0;26198.0;17216.0;52.17239776951672;De 20 à 30 000 entrees;;NON;NON;;FIXE;NON;I;180.0;153.0;56.0;48.13525224388734;39.2951098731043;10.716496440730424;1.8531414422779324;70.0;12.476787372330547;44.384549;4.991924;44.384549, 4.991924
7;720261;CINEMA LA CASCADE;PROVENCE-ALPES-COTE D'AZUR;35 COURS DU 4 SEPTEMBRE;13056;Martigues;49037.0;13;759;Marseille - Aix-en-Provence;1630325.0;04-Unites urbaines de 100 000 hbts ou plus;3.0;319.0;53.0;4525.0;39079.0;17095.0;128.59900555718045;De 30 à 40 000 entrees;;NON;NON;;FIXE;NON;B;346.0;203.0;70.0;70.58064137546577;8.552650881671214;12.83631135756829;8.030396385294722;293.0;86.8057389314321;43.402696;5.054629;43.402696, 5.054629
7;266752;LOUIS LUMIERE;PROVENCE-ALPES-COTE D'AZUR;RUE DES ECOLES;5079;Le Monêtier-les-Bains;1085.0;5;0;Zone rurale;14908533.0;04-Unites urbaines de 100 000 hbts ou plus;2.0;128.0;39.0;877.0;9036.0;3708.0;143.6893203883495;De 5 à 10 000 entrees;;NON;NON;;FIXE;NON;R;101.0;71.0;2.0;67.8396537979729;14.907185969707323;5.101924609953308;12.151235622366473;58.0;49.56155335383214;44.975571;6.50728;44.975571, 6.50728
7;720250;MAJESTIC PALACE;PROVENCE-ALPES-COTE D'AZUR;ZAC DES PLAINES DE FIGUEROLLES;13056;Martigues;49037.0;13;759;Marseille - Aix-en-Provence;1630325.0;04-Unites urbaines de 100 000 hbts ou plus;11.0;2092.0;53.0;18890.0;233472.0;138803.0;68.20385726533289;De 200 à 300 000 entrees;;NON;NON;;FIXE;OUI;B;209.0;184.0;177.0;29.24678172729078;53.918047365376474;12.118491145972735;4.716679761360006;30.0;2.939830603593414;43.43362;5.050227;43.43362, 5.050227
7;249942;ALHAMBRA;PROVENCE-ALPES-COTE D'AZUR;2 RUE DU CINEMA;13055;Marseille;876602.0;13;759;Marseille - Aix-en-Provence;1630325.0;04-Unites urbaines de 100 000 hbts ou plus;1.0;256.0;50.0;1428.0;34536.0;20583.0;67.78895204780643;De 30 à 40 000 entrees;;OUI;A;RDJPPR;FIXE;NON;C;257.0;157.0;26.0;59.85047126355325;13.092622776557295;14.747360215434767;12.309545744454681;175.0;79.2679469917086;43.360713;5.330247;43.360713, 5.330247
7;131031;LE CIGALON;PROVENCE-ALPES-COTE D'AZUR;COURS DE POURRIERES;84042;Cucuron;1810.0;84;0;Zone rurale;14908533.0;04-Unites urbaines de 100 000 hbts ou plus;1.0;93.0;53.0;1124.0;18072.0;11172.0;61.76154672395273;De 10 à 20 000 entrees;;OUI;E;RDJPPR;FIXE;NON;R;263.0;168.0;5.0;69.14228409627182;10.482538933459178;12.671071260028317;7.70410571024068;192.0;67.74421897121283;43.774382;5.440971;43.774382, 5.440971
7;174813;ESPACE ALBERT GIRALDI;PROVENCE-ALPES-COTE D'AZUR;AVENUE CESAR BALDACCINI;13042;Gemenos;6827.0;13;759;Marseille - Aix-en-Provence;1630325.0;04-Unites urbaines de 100 000 hbts ou plus;1.0;323.0;33.0;158.0;3001.0;1226.0;144.77977161500814;De 2 à 5 000 entrees;;NON;NON;;FIXE;NON;B;91.0;80.0;0.0;46.5844718427191;36.554481839386874;11.729423525491503;5.131622792402533;28.0;12.895701432855713;43.287544;5.6229;43.287544, 5.6229
7;290022;RIALTO;PROVENCE-ALPES-COTE D'AZUR;4 RUE DE RIVOLI;6088;Nice;346376.0;6;6701;Nice;966577.0;04-Unites urbaines de 100 000 hbts ou plus;5.0;703.0;53.0;9036.0;77541.0;43611.0;77.80147210566142;De 50 à 80 000 entrees;AUBERT;OUI;A;RD;FIXE;NON;C;203.0;162.0;156.0;66.06059020510673;6.000156969443282;14.636092507325241;13.303160318124737;187.0;97.02019673503558;43.696032;7.258586;43.696032, 7.258586
7;364121;REX;PROVENCE-ALPES-COTE D'AZUR;24 AVENUE DES ARCADES;4209;Sisteron;7910.0;4;4204;Sisteron;7910.0;06-autres communes et unites urbaines;2.0;225.0;50.0;1200.0;12058.0;7414.0;62.63825195575939;De 10 à 20 000 entrees;;NON;NON;;FIXE;NON;I;141.0;121.0;19.0;58.558711318355236;28.978380669775326;7.554048325561678;4.908859686307757;36.0;18.389147944044087;44.194031;5.94255;44.194031, 5.94255
7;51261;CINE 89;PROVENCE-ALPES-COTE D'AZUR;COURS MIRABEAU;13014;Berre-l'etang;13903.0;13;759;Marseille - Aix-en-Provence;1630325.0;04-Unites urbaines de 100 000 hbts ou plus;1.0;196.0;45.0;1182.0;19664.0;11875.0;65.59157894736842;De 10 à 20 000 entrees;;OUI;C;JP;FIXE;NON;B;231.0;194.0;4.0;63.7465973768869;21.572630536995792;10.814154912150457;3.8666171739668402;141.0;45.52091066567681;43.476136;5.167368;43.476136, 5.167368
7;86952;ESPACE FERNANDEL;PROVENCE-ALPES-COTE D'AZUR;AV ARISTIDE BRIAND;13021;Carry-le-Rouet;5831.0;13;13303;Sausset-les-Pins - Carry-le-Rouet;13519.0;06-autres communes et unites urbaines;1.0;200.0;53.0;1494.0;21849.0;14722.0;48.41054204591768;De 20 à 30 000 entrees;;OUI;E;JP;FIXE;NON;B;170.0;140.0;15.0;64.14829377896363;23.87305153770538;8.533445677105275;3.4452090062257175;71.0;23.58751111735243;43.332335;5.151827;43.332335, 5.151827
7;185173;ECOCINE VERDON;PROVENCE-ALPES-COTE D'AZUR;AVENUE PIERRE BROSSOLETTE;4094;Greoux-les-Bains;2825.0;4;4101;Greoux-les-Bains;2825.0;06-autres communes et unites urbaines;2.0;641.0;53.0;2140.0;26242.0;14991.0;75.05169768527784;De 20 à 30 000 entrees;;OUI;E;RDJP;FIXE;NON;I;202.0;165.0;17.0;70.52011210023079;21.764754368611936;4.739531816683152;2.975601714474118;109.0;27.246125947906364;43.757246;5.886021;43.757246, 5.886021
7;201821;CINEMA CLUB 2000;PROVENCE-ALPES-COTE D'AZUR;STATION ISOLA 2000;6073;Isola;667.0;6;0;Zone rurale;14908533.0;04-Unites urbaines de 100 000 hbts ou plus;1.0;150.0;27.0;324.0;3424.0;1660.0;106.26506024096388;De 2 à 5 000 entrees;;NON;NON;;FIXE;NON;R;72.0;60.0;9.0;53.65070093457944;40.74182242990654;5.169392523364486;0.4380841121495327;6.0;2.6869158878504673;44.18736;7.045728;44.18736, 7.045728
7;249441;PRADO;PROVENCE-ALPES-COTE D'AZUR;36 AVENUE DU PRADO;13055;Marseille;876602.0;13;759;Marseille - Aix-en-Provence;1630325.0;04-Unites urbaines de 100 000 hbts ou plus;11.0;1433.0;53.0;18082.0;231836.0;159859.0;45.02530354875234;De 200 à 300 000 entrees;AUBERT;NON;NON;;FIXE;OUI;C;253.0;189.0;176.0;43.74762069562208;39.26544384841668;11.99645267347292;4.99048278248832;65.0;10.502249524139124;43.28385;5.384511;43.28385, 5.384511
7;272358;CINEMA JEAN GABIN;PROVENCE-ALPES-COTE D'AZUR;RUE DES ECOLES;5085;Montgenèvre;466.0;5;0;Zone rurale;14908533.0;04-Unites urbaines de 100 000 hbts ou plus;1.0;188.0;33.0;326.0;4210.0;2415.0;74.32712215320912;De 2 à 5 000 entrees;;NON;NON;;FIXE;NON;R;109.0;92.0;39.0;43.41836734693877;41.47959183673469;10.714285714285714;4.387755102040816;20.0;8.290816326530612;44.932175;6.724754;44.932175, 6.724754
7;418633;CINEMA STAR;PROVENCE-ALPES-COTE D'AZUR;3 TRAVERSE DE LA GENDARMERIE;83119;Saint-Tropez;3669.0;83;83304;Saint-Tropez;8439.0;06-autres communes et unites urbaines;1.0;168.0;52.0;858.0;7159.0;5002.0;43.12275089964015;De 5 à 10 000 entrees;;NON;NON;;FIXE;NON;C;123.0;101.0;10.0;72.0352004469898;16.831959770917727;8.129627042883083;3.0032127392093866;42.0;25.646039949713646;43.269837;6.635574;43.269837, 6.635574
7;450871;LES VARIETES;PROVENCE-ALPES-COTE D'AZUR;AVENUE DES MARTYRS;5179;Veynes;3378.0;5;5103;Veynes;3567.0;06-autres communes et unites urbaines;1.0;276.0;53.0;348.0;5394.0;2301.0;134.41981747066492;De 5 à 10 000 entrees;;OUI;E;;FIXE;NON;C;221.0;174.0;5.0;63.154560810810814;18.79222972972973;12.58445945945946;5.46875;124.0;45.22804054054054;44.532911;5.816268;44.532911, 5.816268
7;723880;CINEUM CANNES;PROVENCE-ALPES-COTE D'AZUR;212 AVENUE FRANCIS TONNER;6029;Cannes;73159.0;6;6701;Nice;966577.0;04-Unites urbaines de 100 000 hbts ou plus;12.0;2344.0;53.0;16654.0;329960.0;102233.0;222.7529271370301;De 300 à 450 000 entrees;;NON;NON;;FIXE;OUI;B;261.0;190.0;186.0;22.833094283199802;59.78110925352409;12.665089240307811;4.7207072229683025;62.0;4.469780713374322;43.55039;6.959846;43.55039, 6.959846
7;74339;COSMO CINEMAS;PROVENCE-ALPES-COTE D'AZUR;AVENUE DU GENERAL BARBOT;5023;Briançon;11095.0;5;5301;Briançon;16122.0;06-autres communes et unites urbaines;4.0;476.0;53.0;5533.0;65314.0;37728.0;73.11810856658185;De 50 à 80 000 entrees;;NON;NON;;FIXE;NON;C;132.0;111.0;100.0;36.679100434923924;50.503799780216376;10.750824188580538;2.0662755962791564;16.0;3.88490767540126;44.900658;6.632743;44.900658, 6.632743
7;84830;CANNET TOILES;PROVENCE-ALPES-COTE D'AZUR;1 RUE VICTORIEN SARDOU;6030;Le Cannet;42524.0;6;6701;Nice;966577.0;04-Unites urbaines de 100 000 hbts ou plus;1.0;80.0;42.0;472.0;7723.0;4842.0;59.50020652622883;De 5 à 10 000 entrees;;OUI;C;;FIXE;NON;B;166.0;130.0;0.0;64.72644172603844;15.217099072455975;14.652507057400188;5.40395214410539;96.0;56.875924183357974;43.576083;7.017663;43.576083, 7.017663
7;376802;SALLE ST LOUIS  CENTRAL;PROVENCE-ALPES-COTE D'AZUR;RUE DE LA TRESORERIE;5132;Saint-Bonnet-en-Champsaur;2146.0;5;0;Zone rurale;14908533.0;04-Unites urbaines de 100 000 hbts ou plus;1.0;212.0;46.0;132.0;3947.0;2134.0;84.95782567947516;De 2 à 5 000 entrees;;NON;NON;;FIXE;NON;R;69.0;39.0;0.0;74.31322571509487;3.5117530444633247;13.93372982158029;8.241291418861513;54.0;78.70291702067404;44.682199;6.075234;44.682199, 6.075234
7;84712;ARCADES;PROVENCE-ALPES-COTE D'AZUR;77 RUE FELIX FAURE;6029;Cannes;73159.0;6;6701;Nice;966577.0;04-Unites urbaines de 100 000 hbts ou plus;3.0;453.0;52.0;4308.0;68012.0;36394.0;86.87695774028685;De 50 à 80 000 entrees;;OUI;C;;FIXE;NON;B;241.0;163.0;129.0;65.63729618005053;8.330398836408175;14.313710479981628;11.718594503559672;187.0;80.76092781137564;43.552517;7.015358;43.552517, 7.015358
7;384051;LE RIOUNET;PROVENCE-ALPES-COTE D'AZUR;AURON;6120;Saint-etienne-de-Tinee;1566.0;6;0;Zone rurale;14908533.0;04-Unites urbaines de 100 000 hbts ou plus;1.0;250.0;30.0;345.0;3821.0;2807.0;36.12397577484858;De 2 à 5 000 entrees;;NON;NON;;FIXE;NON;R;77.0;65.0;5.0;52.25603357817419;43.520461699895066;3.698845750262329;0.5246589716684155;5.0;1.4165792235047219;44.225131;6.93274;44.225131, 6.93274
7;439503;LES VISITEURS DU SOIR;PROVENCE-ALPES-COTE D'AZUR;QUARTIER DE LA VIGNASSE;6152;Valbonne;13665.0;6;6701;Nice;966577.0;04-Unites urbaines de 100 000 hbts ou plus;1.0;230.0;48.0;287.0;16297.0;7552.0;115.79713983050848;De 10 à 20 000 entrees;;OUI;C;;FIXE;NON;B;180.0;132.0;3.0;55.381123510497446;11.682743837084674;22.054094949877058;10.882037702540824;161.0;91.53269024651661;43.641892;7.006394;43.641892, 7.006394
7;84831;CINETOILE ROCHEVILLE;PROVENCE-ALPES-COTE D'AZUR;2 AVENUE FRANKLIN ROOSEVELT;6030;Le Cannet;42524.0;6;6701;Nice;966577.0;04-Unites urbaines de 100 000 hbts ou plus;1.0;88.0;53.0;755.0;12453.0;4407.0;182.573179033356;De 10 à 20 000 entrees;;OUI;C;;FIXE;NON;B;235.0;196.0;0.0;60.58965603398018;20.887815440992753;11.993004080952778;6.529524444074291;121.0;44.71558257683018;43.56912;7.005225;43.56912, 7.005225
7;172961;CASINO;PROVENCE-ALPES-COTE D'AZUR;11 COURS FORBIN;13041;Gardanne;21850.0;13;759;Marseille - Aix-en-Provence;1630325.0;04-Unites urbaines de 100 000 hbts ou plus;2.0;163.0;44.0;2534.0;21821.0;15846.0;37.70667676385209;De 20 à 30 000 entrees;;OUI;C;;FIXE;NON;B;238.0;180.0;22.0;69.45540647198106;15.272296764009472;9.826361483820047;5.445935280189424;149.0;55.10556432517758;43.454749;5.470731;43.454749, 5.470731
7;173083;LE ROCHER;PROVENCE-ALPES-COTE D'AZUR;AV MARX DORMOY;83062;La Garde;25876.0;83;757;Toulon;598427.0;04-Unites urbaines de 100 000 hbts ou plus;1.0;141.0;42.0;361.0;7557.0;2724.0;177.42290748898677;De 5 à 10 000 entrees;;OUI;C;;FIXE;NON;B;77.0;48.0;1.0;67.98812175204158;11.017074981440238;13.437268002969564;7.557535263548626;61.0;75.88715664439495;43.124317;6.009199;43.124317, 6.009199
7;243839;SALLE LEONARD DE VINCI;PROVENCE-ALPES-COTE D'AZUR;ESTEREL GALLERY;6079;Mandelieu-la-Napoule;22067.0;6;6701;Nice;966577.0;04-Unites urbaines de 100 000 hbts ou plus;1.0;259.0;41.0;158.0;5571.0;1973.0;182.36188545362393;De 5 à 10 000 entrees;;NON;NON;;FIXE;NON;B;93.0;72.0;1.0;67.61802189912045;24.771136241249327;6.982588404236223;0.6282534553940047;28.0;22.45557350565428;43.535959;6.929182;43.535959, 6.929182
7;328621;JEAN MARAIS;PROVENCE-ALPES-COTE D'AZUR;IMMEUBLE LE VOILE;5110;Puy-Saint-Vincent;292.0;5;0;Zone rurale;14908533.0;04-Unites urbaines de 100 000 hbts ou plus;1.0;195.0;28.0;297.0;3340.0;1822.0;83.31503841931942;De 2 à 5 000 entrees;;NON;NON;;FIXE;NON;R;101.0;88.0;39.0;53.80239520958084;35.92814371257485;6.25748502994012;4.0119760479041915;14.0;7.2155688622754495;44.82571;6.498622;44.82571, 6.498622
7;345421;SALLE POLYVALENTE;PROVENCE-ALPES-COTE D'AZUR;SALLE POLYVALENTE;4172;Roumoules;745.0;4;0;Zone rurale;14908533.0;04-Unites urbaines de 100 000 hbts ou plus;1.0;112.0;48.0;585.0;15991.0;7657.0;108.84158286535195;De 10 à 20 000 entrees;;NON;NON;;ITINERANT;NON;R;130.0;102.0;7.0;45.48774126238915;40.98852373500261;10.139540949400104;3.384194053208138;38.0;32.785602503912365;43.839788;6.151962;43.839788, 6.151962
7;33801;PATHE CAP SUD;PROVENCE-ALPES-COTE D'AZUR;ZONE COMMERCIALE CAP SUD;84007;Avignon;92277.0;84;754;Avignon;470065.0;04-Unites urbaines de 100 000 hbts ou plus;14.0;2604.0;53.0;22381.0;398668.0;237519.0;67.8467827836931;De 300 à 450 000 entrees;PATHE-GAUMONT;NON;NON;;FIXE;OUI;C;314.0;249.0;200.0;28.836066444040537;55.02564582222098;12.027119603823238;4.111168129915239;110.0;4.71660671265809;43.929048;4.837198;43.929048, 4.837198
7;164831;LE BOURGUET;PROVENCE-ALPES-COTE D'AZUR;PLACE DU BOURGUET;4088;Forcalquier;5210.0;4;4202;Forcalquier;6590.0;06-autres communes et unites urbaines;1.0;135.0;49.0;1086.0;24007.0;13874.0;73.03589447888137;De 20 à 30 000 entrees;;OUI;E;RDJPPR;FIXE;NON;C;255.0;178.0;3.0;68.48910873904364;12.735398767682026;9.80647400850473;8.96901848476959;215.0;83.08166276143365;43.959829;5.781061;43.959829, 5.781061
7;13423;LE MAZARIN;PROVENCE-ALPES-COTE D'AZUR;3TER RUE MAZARINE - 6 RUE LAROQU;13001;Aix-en-Provence;150358.0;13;759;Marseille - Aix-en-Provence;1630325.0;04-Unites urbaines de 100 000 hbts ou plus;3.0;438.0;53.0;4414.0;97659.0;52452.0;86.18737131091282;De 80 à 100 000 entrees;PATHE-GAUMONT;OUI;C;RDJPPR;FIXE;NON;B;208.0;152.0;130.0;64.1108128375955;3.410461792611753;23.836280444729436;8.642444925063307;196.0;98.03719120539935;43.526103;5.448686;43.526103, 5.448686
7;23933;FEMINA;PROVENCE-ALPES-COTE D'AZUR;8 BD EMILE ZOLA;13004;Arles;51691.0;13;552;Arles;54491.0;05-Unites urbaines de 20 000 à 100 000 hbts;3.0;483.0;52.0;3344.0;45040.0;27940.0;61.202576950608446;De 40 à 50 000 entrees;;NON;NON;;FIXE;NON;C;134.0;109.0;90.0;31.68656511595993;49.457938795114586;13.224463656740316;5.63103243218517;23.0;6.111339828919079;43.674097;4.627703;43.674097, 4.627703
7;84774;PROSPER MERIMEE;PROVENCE-ALPES-COTE D'AZUR;25 AVENUE FRANCIS TOMER;6029;Cannes;73159.0;6;6701;Nice;966577.0;04-Unites urbaines de 100 000 hbts ou plus;1.0;432.0;26.0;81.0;6984.0;4459.0;56.62704642296479;De 5 à 10 000 entrees;;NON;NON;;FIXE;NON;B;64.0;9.0;1.0;62.40236070126714;8.349244922756466;19.70144072209686;9.546953653879536;41.0;45.061621246311404;43.54938;6.981931;43.54938, 6.981931
7;168942;LE VOX;PROVENCE-ALPES-COTE D'AZUR;PLACE AGRICOLA;83061;Frejus;56598.0;83;83502;Frejus;101231.0;04-Unites urbaines de 100 000 hbts ou plus;3.0;502.0;53.0;4011.0;34054.0;18899.0;80.18942801206413;De 30 à 40 000 entrees;;OUI;D;;FIXE;NON;C;237.0;163.0;107.0;61.540542978262835;16.6711764529028;11.346622170109137;10.441658398725234;187.0;80.56883437058417;43.432981;6.732812;43.432981, 6.732812
7;414162;CINE PALACE;PROVENCE-ALPES-COTE D'AZUR;4 AV FAUCONNET;13100;Saint-Remy-de-Provence;9888.0;13;13302;Saint-Remy-de-Provence;12949.0;06-autres communes et unites urbaines;1.0;190.0;53.0;1393.0;30031.0;17381.0;72.7806225188424;De 30 à 40 000 entrees;;OUI;E;JPPR;FIXE;NON;C;314.0;244.0;49.0;55.614846033580314;24.25395962205153;10.96798314186663;9.163211202501529;160.0;31.598803616341513;43.788778;4.829098;43.788778, 4.829098
7;439502;SOPHIA ANTIPOLIS;PROVENCE-ALPES-COTE D'AZUR;190 RUE FREDERIC MISTRAL;6152;Valbonne;13665.0;6;6701;Nice;966577.0;04-Unites urbaines de 100 000 hbts ou plus;1.0;230.0;40.0;110.0;5100.0;1650.0;209.0909090909091;De 5 à 10 000 entrees;;NON;NON;;FIXE;NON;B;55.0;24.0;0.0;45.39331248496512;31.128217464517682;14.505653115227327;8.972816935289872;32.0;76.90642290113063;43.619739;7.039277;43.619739, 7.039277
7;720000;POLE CULTUREL AUGUSTE ESCOFFIER;PROVENCE-ALPES-COTE D'AZUR;POLE CULTUREL AUGUSTE ESCOFFIER;6161;Villeneuve-Loubet;16588.0;6;6701;Nice;966577.0;04-Unites urbaines de 100 000 hbts ou plus;1.0;450.0;44.0;115.0;7750.0;3236.0;139.49320148331276;De 5 à 10 000 entrees;;NON;NON;;FIXE;NON;B;109.0;86.0;1.0;64.72567287784679;15.81262939958592;15.734989648033126;3.7267080745341614;59.0;53.09265010351967;43.658327;7.12373;43.658327, 7.12373
7;721900;CGR VITROLLES;PROVENCE-ALPES-COTE D'AZUR;2 RUE GERARD TOULON;13117;Vitrolles;34814.0;13;759;Marseille - Aix-en-Provence;1630325.0;04-Unites urbaines de 100 000 hbts ou plus;12.0;2446.0;53.0;23424.0;274735.0;174695.0;57.265519906122094;De 200 à 300 000 entrees;CGR;NON;NON;;FIXE;OUI;B;242.0;191.0;189.0;27.902095089029398;54.52716960018139;12.278340750926132;5.292394559863083;30.0;1.3936785287201636;43.437442;5.25529;43.437442, 5.25529
7;199831;OLBIA;PROVENCE-ALPES-COTE D'AZUR;4 RUE DU SOLDAT BELLON;83069;Hyères;55528.0;83;757;Toulon;598427.0;04-Unites urbaines de 100 000 hbts ou plus;6.0;730.0;53.0;8031.0;118455.0;73292.0;61.62064072477214;De 100 à 150 000 entrees;;OUI;C;;FIXE;NON;B;226.0;161.0;130.0;53.77424293977543;31.33378700238176;10.851480095270501;4.040489962572304;114.0;22.16825450833617;43.118684;6.128014;43.118684, 6.128014
7;33751;VOX;PROVENCE-ALPES-COTE D'AZUR;22 PLACE DE L HORLOGE;84007;Avignon;92277.0;84;754;Avignon;470065.0;04-Unites urbaines de 100 000 hbts ou plus;2.0;379.0;47.0;3061.0;46061.0;27601.0;66.88163472337958;De 40 à 50 000 entrees;;NON;NON;;FIXE;NON;C;120.0;75.0;33.0;61.73216498495309;18.472295981589664;17.81288723667906;1.982651796778191;65.0;26.332094175960346;43.949433;4.806281;43.949433, 4.806281
7;86173;SLE COMMUNALE DU FOYER RURAL;PROVENCE-ALPES-COTE D'AZUR;31 RUE MARECHAL FOCH;83032;Carcès;3470.0;83;83204;Carcès;7098.0;06-autres communes et unites urbaines;1.0;100.0;49.0;236.0;5860.0;2555.0;129.35420743639924;De 5 à 10 000 entrees;;NON;NON;;ITINERANT;NON;C;84.0;63.0;7.0;61.194539249146764;32.098976109215016;4.726962457337884;1.9795221843003412;27.0;19.69283276450512;43.4765018;6.182329100000061;43.4765018, 6.182329100000061
7;213542;SALLE SEVIGNE;PROVENCE-ALPES-COTE D'AZUR;SALLE SEVIGNE;13050;Lambesc;10273.0;13;13213;Lambesc;10273.0;06-autres communes et unites urbaines;1.0;137.0;53.0;1138.0;28792.0;11579.0;148.65705155885655;De 20 à 30 000 entrees;;NON;NON;;ITINERANT;NON;I;141.0;94.0;1.0;60.68643999678483;24.049513704686117;11.06422313318865;4.199823165340407;41.0;24.45141065830721;43.653486;5.262357;43.653486, 5.262357
7;249451;BONNEVEINE;PROVENCE-ALPES-COTE D'AZUR;AVENUE DE HAMBOURG;13055;Marseille;876602.0;13;759;Marseille - Aix-en-Provence;1630325.0;04-Unites urbaines de 100 000 hbts ou plus;5.0;806.0;53.0;6901.0;86447.0;57628.0;50.0086763378913;De 80 à 100 000 entrees;;NON;NON;;FIXE;NON;C;114.0;84.0;76.0;39.61267399866762;45.20868152546137;11.338109652762357;3.8405348231086593;28.0;6.8991713514334805;43.249625;5.389984;43.249625, 5.389984
7;249791;LES VARIETES;PROVENCE-ALPES-COTE D'AZUR;35 37 RUE VINCENT SCOTTO;13055;Marseille;876602.0;13;759;Marseille - Aix-en-Provence;1630325.0;04-Unites urbaines de 100 000 hbts ou plus;7.0;565.0;53.0;11860.0;162440.0;98569.0;64.79826314561372;De 150 à 200 000 entrees;;OUI;A;RDJPPR;FIXE;NON;C;476.0;261.0;230.0;67.08458048606013;10.577110119663912;12.062398423724453;10.275910970551507;389.0;92.6563882457032;43.297447;5.379767;43.297447, 5.379767
7;308231;LE LUBERON;PROVENCE-ALPES-COTE D'AZUR;31 RUE GIRAUD;84089;Pertuis;20767.0;84;84303;Pertuis;20767.0;05-Unites urbaines de 20 000 à 100 000 hbts;3.0;363.0;53.0;4565.0;64024.0;36236.0;76.68616845126395;De 50 à 80 000 entrees;;OUI;E;RDJP;FIXE;NON;I;255.0;193.0;130.0;43.194464605409586;43.38800987080854;9.459524846373446;3.958000677408429;126.0;15.941678360026451;43.692404;5.499464;43.692404, 5.499464
7;327092;SALLE POLYVALENTE;PROVENCE-ALPES-COTE D'AZUR;SALLE POLYVALENTE;83100;Puget-Ville;4456.0;83;83111;Puget-Ville;4456.0;06-autres communes et unites urbaines;1.0;100.0;18.0;29.0;2724.0;1407.0;93.60341151385927;De 2 à 5 000 entrees;;NON;NON;;ITINERANT;NON;I;17.0;8.0;1.0;29.038179148311304;47.61380323054332;10.168869309838472;13.179148311306902;8.0;52.38619676945668;43.288803;6.130491;43.288803, 6.130491
7;364945;CINEMA LE RIO;PROVENCE-ALPES-COTE D'AZUR;AVENUE DES AIGUIERS;83130;Solliès-Pont;12158.0;83;757;Toulon;598427.0;04-Unites urbaines de 100 000 hbts ou plus;1.0;178.0;47.0;313.0;11029.0;5313.0;107.58516845473368;De 10 à 20 000 entrees;;NON;NON;;FIXE;NON;B;84.0;72.0;2.0;69.92906441717791;15.193634969325153;13.870782208588958;1.0065184049079754;20.0;24.92331288343558;43.190268;6.038903;43.190268, 6.038903
7;442861;LE MELEZE;PROVENCE-ALPES-COTE D'AZUR;COURS G.ROHNER;5177;Vars;565.0;5;0;Zone rurale;14908533.0;04-Unites urbaines de 100 000 hbts ou plus;2.0;188.0;27.0;755.0;5900.0;2477.0;138.19136051675414;De 5 à 10 000 entrees;;NON;NON;;FIXE;NON;R;65.0;53.0;21.0;46.71186440677966;41.71186440677966;6.627118644067796;4.949152542372881;12.0;5.508474576271186;44.569752;6.68318;44.569752, 6.68318
7;701400;SUPERDEVOLUY REX;PROVENCE-ALPES-COTE D'AZUR;LE BOIS D'AUROUZE;5139;Devoluy;930.0;5;0;Zone rurale;14908533.0;04-Unites urbaines de 100 000 hbts ou plus;1.0;145.0;24.0;205.0;1018.0;662.0;53.776435045317214;Moins de 2000 entrees;;NON;NON;;ITINERANT;NON;R;49.0;37.0;1.0;68.56581532416503;26.031434184675835;5.402750491159136;0.0;2.0;3.6345776031434185;44.6771389;5.926679000000036;44.6771389, 5.926679000000036
7;701401;LA TANIERE;PROVENCE-ALPES-COTE D'AZUR;LES ARCADES;5139;Devoluy;930.0;5;0;Zone rurale;14908533.0;04-Unites urbaines de 100 000 hbts ou plus;1.0;89.0;27.0;258.0;1334.0;415.0;221.44578313253015;Moins de 2000 entrees;;NON;NON;;FIXE;NON;R;61.0;49.0;1.0;58.245877061469265;40.85457271364318;0.8995502248875562;0.0;4.0;3.223388305847077;44.72169;5.924351;44.72169, 5.924351
7;725480;CINEMEDITERRANEE;PROVENCE-ALPES-COTE D'AZUR;SALLE DES FETES;83127;Signes;3038.0;83;83107;Signes;3038.0;06-autres communes et unites urbaines;1.0;200.0;7.0;21.0;671.0;;;Moins de 2000 entrees;;NON;NON;;ITINERANT;NON;I;13.0;13.0;0.0;84.52830188679246;15.471698113207546;0.0;0.0;4.0;5.283018867924529;47.765783;-0.325149;47.765783, -0.325149
7;13454;ARMAND LUNEL;PROVENCE-ALPES-COTE D'AZUR;RUE DES ALLUMETTES;13001;Aix-en-Provence;150358.0;13;759;Marseille - Aix-en-Provence;1630325.0;04-Unites urbaines de 100 000 hbts ou plus;1.0;165.0;49.0;1007.0;20248.0;9895.0;104.62860030318342;De 20 à 30 000 entrees;;OUI;C;PR;FIXE;NON;B;239.0;13.0;2.0;33.44001651868677;24.788354325831097;19.750154862688415;22.021474292793723;188.0;87.98265537889738;43.524462;5.439812;43.524462, 5.439812
7;82752;SALLE POLYVALENTE;PROVENCE-ALPES-COTE D'AZUR;SALLE POLYVALENTE;84029;Camaret-sur-Aigues;4636.0;84;84111;Camaret-sur-Aigues;5361.0;06-autres communes et unites urbaines;1.0;120.0;51.0;351.0;9711.0;3934.0;146.84799186578545;De 5 à 10 000 entrees;;OUI;E;JP;ITINERANT;NON;C;137.0;101.0;0.0;62.814465408805034;15.341419586702607;10.377358490566039;11.466756513926326;77.0;49.15768194070081;44.162816;4.889682;44.162816, 4.889682
7;290191;PATHE LINGOSTIERE;PROVENCE-ALPES-COTE D'AZUR;604 ROUTE DE GRENOBLE;6088;Nice;346376.0;6;6701;Nice;966577.0;04-Unites urbaines de 100 000 hbts ou plus;13.0;2816.0;53.0;20927.0;507552.0;303791.0;67.0727572574566;De 450 à 700 000 entrees;PATHE-GAUMONT;NON;NON;;FIXE;OUI;C;274.0;193.0;178.0;28.918830101873148;54.14995506178509;13.12690789447636;3.804306941865391;63.0;3.0706460412798084;43.671643;7.203332;43.671643, 7.203332
7;404350;SALLE JEAN GABIN;PROVENCE-ALPES-COTE D'AZUR;PLACE FELIX FAURE;6127;Saint-Martin-Vesubie;1443.0;6;0;Zone rurale;14908533.0;04-Unites urbaines de 100 000 hbts ou plus;1.0;120.0;49.0;293.0;5377.0;3284.0;63.733252131546905;De 5 à 10 000 entrees;PATHE-GAUMONT;NON;NON;;ITINERANT;NON;R;78.0;67.0;3.0;74.90978157644824;19.981006647673315;4.368471035137702;0.7407407407407408;21.0;15.93542260208927;44.073396;7.263839;44.073396, 7.263839
7;33772;UTOPIA REPUBLIQUE (UTOPIA 5);PROVENCE-ALPES-COTE D'AZUR;5 RUE FIGUIERE;84007;Avignon;92277.0;84;754;Avignon;470065.0;04-Unites urbaines de 100 000 hbts ou plus;1.0;139.0;49.0;1346.0;19902.0;12092.0;64.58815745947734;De 10 à 20 000 entrees;;OUI;B;RDJPPR;FIXE;NON;C;328.0;223.0;127.0;65.7378153001502;9.809913502874606;13.927591029160407;10.524680167814783;293.0;90.25224012016368;43.947217;4.806805;43.947217, 4.806805
7;52619;LE MARILYN;PROVENCE-ALPES-COTE D'AZUR;PLACE NOEL BLACHE;83018;Besse-sur-Issole;3122.0;83;83206;Carnoules;11450.0;06-autres communes et unites urbaines;1.0;84.0;51.0;402.0;8053.0;5868.0;37.23585548738924;De 5 à 10 000 entrees;;NON;NON;;FIXE;NON;C;91.0;81.0;0.0;53.48317397243263;34.64547373649572;8.17086799950329;3.7004842915683596;7.0;2.9181671426797466;43.349529;6.177013;43.349529, 6.177013
7;86930;JULIETTE GRECO;PROVENCE-ALPES-COTE D'AZUR;BOULEVARD LA COLLE BELLE;6033;Carros;13010.0;6;6701;Nice;966577.0;04-Unites urbaines de 100 000 hbts ou plus;1.0;277.0;24.0;130.0;6176.0;3350.0;84.35820895522387;De 5 à 10 000 entrees;;NON;NON;;FIXE;NON;B;114.0;92.0;0.0;59.64570128392654;22.379327157484155;15.08207378514546;2.8928977734438486;51.0;50.170648464163826;43.772944;7.193186;43.772944, 7.193186
7;87646;CINE LES CALANQUES;PROVENCE-ALPES-COTE D'AZUR;20 AVENUE EMMANUEL AGOSTINI;13022;Cassis;6889.0;13;13211;Cassis;6889.0;06-autres communes et unites urbaines;1.0;111.0;52.0;980.0;10207.0;6336.0;61.09532828282829;De 10 à 20 000 entrees;;OUI;E;;FIXE;NON;I;168.0;146.0;5.0;66.84507590502142;21.33125729855975;7.746204748929545;4.077462047489296;104.0;45.24133904242896;43.215622;5.538828;43.215622, 5.538828
7;157011;ESPACE CULTUREL;PROVENCE-ALPES-COTE D'AZUR;2 RUE DU TERME;83055;Fayence;5857.0;83;83301;Fayence;11492.0;06-autres communes et unites urbaines;1.0;254.0;51.0;136.0;2814.0;1388.0;102.7377521613833;De 2 à 5 000 entrees;;NON;NON;;FIXE;NON;C;130.0;116.0;3.0;46.80170575692964;36.9225302061123;14.78322672352523;1.4925373134328357;40.0;37.38450604122246;43.620961;6.698294;43.620961, 6.698294
7;249831;LES TROIS PALMES;PROVENCE-ALPES-COTE D'AZUR;2 BOULEVARD LEON BANCAL;13055;Marseille;876602.0;13;759;Marseille - Aix-en-Provence;1630325.0;04-Unites urbaines de 100 000 hbts ou plus;11.0;2436.0;53.0;16674.0;592641.0;381211.0;55.46272274409709;De 450 à 700 000 entrees;;NON;NON;;FIXE;OUI;C;171.0;131.0;127.0;27.583905803287127;56.045485955855455;12.330460821375825;4.040147419481593;31.0;1.8586642819397585;43.289155;5.481134;43.289155, 5.481134
7;294314;L EDEN;PROVENCE-ALPES-COTE D'AZUR;RUE DU 19 MARS;13066;Noves;5893.0;13;754;Avignon;470065.0;04-Unites urbaines de 100 000 hbts ou plus;1.0;161.0;44.0;175.0;3826.0;1914.0;99.89550679205851;De 2 à 5 000 entrees;;NON;NON;;FIXE;NON;B;161.0;125.0;1.0;72.03389830508475;13.559322033898304;10.278840896664844;4.127938764352105;78.0;35.4018589393111;43.875599;4.9035;43.875599, 4.9035
7;381260;CINEMA CASINO;PROVENCE-ALPES-COTE D'AZUR;ROUTE DE BANDOL;83112;Saint-Cyr-sur-Mer;12303.0;83;757;Toulon;598427.0;04-Unites urbaines de 100 000 hbts ou plus;1.0;110.0;53.0;1104.0;14039.0;10186.0;37.82642843118005;De 10 à 20 000 entrees;;NON;NON;;FIXE;NON;B;207.0;158.0;47.0;56.90083248137871;29.560391412297353;11.136264057251351;2.4025120490725866;97.0;27.3112311961443;43.19174;5.713725;43.19174, 5.713725
7;463723;LES LUMIERES;PROVENCE-ALPES-COTE D'AZUR;ARCADES DES CITEAUX;13117;Vitrolles;34814.0;13;759;Marseille - Aix-en-Provence;1630325.0;04-Unites urbaines de 100 000 hbts ou plus;3.0;393.0;53.0;2274.0;21128.0;10806.0;95.52100684804739;De 20 à 30 000 entrees;;OUI;C;RDJPPR;FIXE;NON;B;370.0;232.0;5.0;67.18406415728883;13.517009442504206;13.02548182641314;6.2734445737938165;256.0;67.73379899107489;43.447301;5.250042;43.447301, 5.250042
7;722760;PATHE;PROVENCE-ALPES-COTE D'AZUR;300 AVENUE DE L'UNIVERSITE;83144;La Valette-du-Var;24377.0;83;757;Toulon;598427.0;04-Unites urbaines de 100 000 hbts ou plus;16.0;3271.0;53.0;30098.0;967608.0;541196.0;78.79067842334386;De 700 000 à 1 million d'entrees;PATHE-GAUMONT;NON;NON;;FIXE;OUI;B;262.0;204.0;199.0;30.906933885722715;52.37636166822147;12.74176558218004;3.9749388638757703;58.0;4.599493458382765;43.137099;6.003711;43.137099, 6.003711
7;103985;CINEMATOGRAPHE SLE CHAPLIN;PROVENCE-ALPES-COTE D'AZUR;CENTRE CULTUREL SIMONE SIGNORET;4049;Château-Arnoux-Saint-Auban;5172.0;4;4203;Château-Arnoux-Saint-Auban;7172.0;06-autres communes et unites urbaines;3.0;465.0;53.0;4187.0;57365.0;32334.0;77.41386775530401;De 50 à 80 000 entrees;;OUI;E;RDJPPR;FIXE;NON;C;269.0;206.0;150.0;51.030880768458154;35.873555032049524;9.611205463942001;3.4843587355503205;155.0;28.720392994758853;44.068241;5.987231;44.068241, 5.987231
7;172743;LE CENTRE;PROVENCE-ALPES-COTE D'AZUR;20 BIS RUE DE L IMPRIMERIE;5061;Gap;41528.0;5;5401;Gap;42010.0;05-Unites urbaines de 20 000 à 100 000 hbts;1.0;274.0;53.0;1364.0;18965.0;10898.0;74.0227564690769;De 10 à 20 000 entrees;;NON;NON;;FIXE;NON;C;71.0;46.0;39.0;77.72355878347707;14.616432137993646;6.899682251475261;0.7603268270540172;51.0;63.68588288697231;44.559365;6.078993;44.559365, 6.078993
7;268972;MAISON POUR TOUS;PROVENCE-ALPES-COTE D'AZUR;ROND POINT DU 8 MAI;83081;Montauroux;6730.0;83;83205;Montauroux;10297.0;06-autres communes et unites urbaines;1.0;284.0;53.0;1095.0;21558.0;11717.0;83.9890757019715;De 20 à 30 000 entrees;;OUI;E;JP;FIXE;NON;C;243.0;204.0;6.0;49.44965152607546;32.021148762316756;13.400624849795722;5.128574861812065;116.0;33.37659216534487;43.618473;6.771904;43.618473, 6.771904
7;342900;CINEMA PAVILLON BLEU;PROVENCE-ALPES-COTE D'AZUR;RD 2085;6105;Roquefort-les-Pins;7476.0;6;6701;Nice;966577.0;04-Unites urbaines de 100 000 hbts ou plus;2.0;372.0;53.0;2111.0;32795.0;19010.0;72.51446607048922;De 30 à 40 000 entrees;;OUI;C;;FIXE;NON;B;293.0;233.0;41.0;53.30940864409425;30.965829302543295;9.84552972382587;5.879232329536589;154.0;34.16757684506163;43.665141;7.049995;43.665141, 7.049995
7;27833;PAGNOL;PROVENCE-ALPES-COTE D'AZUR;COURS FOCH;13005;Aubagne;47640.0;13;759;Marseille - Aix-en-Provence;1630325.0;04-Unites urbaines de 100 000 hbts ou plus;4.0;579.0;53.0;6305.0;78115.0;45805.0;70.53815085689334;De 50 à 80 000 entrees;;OUI;C;;FIXE;NON;B;195.0;166.0;155.0;58.06310816709029;25.715679478292124;12.268607666435596;3.952604688181981;75.0;20.879868546047394;43.293397;5.567708;43.293397, 5.567708
7;81080;SALLE MISTRAL;PROVENCE-ALPES-COTE D'AZUR;SALLE MISTRAL;6026;Cabris;1413.0;6;6701;Nice;966577.0;04-Unites urbaines de 100 000 hbts ou plus;1.0;250.0;49.0;338.0;8372.0;4684.0;78.73612297181896;De 5 à 10 000 entrees;PATHE-GAUMONT;NON;NON;;ITINERANT;NON;B;90.0;79.0;3.0;63.30917577693158;25.070630143716986;7.492936985628301;4.12725709372313;25.0;15.366662572165582;43.655944;6.87474;43.655944, 6.87474
7;112811;LUMIERE;PROVENCE-ALPES-COTE D'AZUR;PLACE EVARISTE GRAS;13028;La Ciotat;36812.0;13;757;Toulon;598427.0;04-Unites urbaines de 100 000 hbts ou plus;3.0;426.0;53.0;4248.0;24776.0;24998.0;-0.8880710456836582;De 20 à 30 000 entrees;;OUI;C;;FIXE;NON;B;240.0;187.0;168.0;63.52825793796739;19.153283478403008;10.494054186588206;6.824404397041397;178.0;56.03367251031833;43.175703;5.604941;43.175703, 5.604941
7;173991;LA COUPOLE;PROVENCE-ALPES-COTE D'AZUR;QUARTIER SAINTE APPOLONIE;6065;La Gaude;7225.0;6;6701;Nice;966577.0;04-Unites urbaines de 100 000 hbts ou plus;1.0;177.0;49.0;678.0;9093.0;4705.0;93.2624867162593;De 5 à 10 000 entrees;;OUI;C;;FIXE;NON;B;200.0;179.0;5.0;61.09238031018206;21.690267475837267;12.339851652056643;4.877500561924028;98.0;36.54753877275792;43.721609;7.149739;43.721609, 7.149739
7;210701;LA STRADA;PROVENCE-ALPES-COTE D'AZUR;BOULODROME LA STRADA (PLEIN AIR);84058;Lacoste;432.0;84;0;Zone rurale;14908533.0;04-Unites urbaines de 100 000 hbts ou plus;1.0;100.0;53.0;639.0;20222.0;9458.0;113.80841615563546;De 20 à 30 000 entrees;;OUI;E;JP;ITINERANT;NON;R;191.0;142.0;0.0;67.9598161803997;14.657475686651706;11.488725018702576;5.893983114246018;129.0;64.47579352356524;43.847212;5.273548;43.847212, 5.273548
7;249563;CESAR;PROVENCE-ALPES-COTE D'AZUR;4 PLACE CASTELLANE;13055;Marseille;876602.0;13;759;Marseille - Aix-en-Provence;1630325.0;04-Unites urbaines de 100 000 hbts ou plus;3.0;458.0;47.0;3869.0;48247.0;36431.0;32.433916170294516;De 40 à 50 000 entrees;;OUI;A;;FIXE;NON;C;190.0;102.0;76.0;57.58630939742664;5.494925474542443;20.839526094526306;16.079239033504606;170.0;91.43912692683341;43.28624;5.383262;43.28624, 5.383262
7;84745;SALLE RAIMU;PROVENCE-ALPES-COTE D'AZUR;AVENUE DE LA BORDE;6029;Cannes;73159.0;6;6701;Nice;966577.0;04-Unites urbaines de 100 000 hbts ou plus;1.0;177.0;47.0;370.0;7671.0;5131.0;49.50302085363476;De 5 à 10 000 entrees;;OUI;C;;FIXE;NON;B;160.0;128.0;2.0;48.512854982355904;16.383801041841707;16.921525793984205;18.181818181818183;88.0;42.816333389346326;43.567121;6.963836;43.567121, 6.963836
7;154712;LE GRENIER DE L ALCAZAR;PROVENCE-ALPES-COTE D'AZUR;PLACE THIERS;13035;Eyguières;7014.0;13;13207;Eyguières;7014.0;06-autres communes et unites urbaines;1.0;198.0;50.0;453.0;7136.0;3834.0;86.12415232133542;De 5 à 10 000 entrees;;OUI;E;;FIXE;NON;I;123.0;95.0;9.0;52.373341857120025;29.614831388844493;9.509349528528048;8.502477225507432;61.0;27.329391081988174;43.695168;5.030541;43.695168, 5.030541
7;321854;GERARD PHILIPE;PROVENCE-ALPES-COTE D'AZUR;AV GABRIEL PERI;13078;Port-Saint-Louis-du-Rhône;8447.0;13;13214;Port-Saint-Louis-du-Rhône;8447.0;06-autres communes et unites urbaines;1.0;213.0;50.0;938.0;9543.0;4033.0;136.62286139350363;De 5 à 10 000 entrees;;OUI;E;JPPR;FIXE;NON;I;259.0;183.0;2.0;52.66358550231087;25.370955971783022;14.680126489905131;7.285332036000973;153.0;36.04962296278278;43.39359;4.796834;43.39359, 4.796834
7;333600;SALLE POLYVALENTE;PROVENCE-ALPES-COTE D'AZUR;COUR DE L'ECOLE PRIMAIRE;83102;Regusse;2607.0;83;0;Zone rurale;14908533.0;04-Unites urbaines de 100 000 hbts ou plus;1.0;200.0;10.0;17.0;791.0;418.0;89.23444976076556;Moins de 2000 entrees;;NON;NON;;ITINERANT;NON;R;12.0;12.0;2.0;28.192161820480404;54.740834386852086;17.06700379266751;0.0;0.0;0.0;43.657393;6.130635;43.657393, 6.130635
7;90312;FEMINA;PROVENCE-ALPES-COTE D'AZUR;58 COURS GAMBETTA;84035;Cavaillon;26206.0;84;754;Avignon;470065.0;04-Unites urbaines de 100 000 hbts ou plus;3.0;392.0;53.0;4665.0;55267.0;31661.0;74.55860522409272;De 50 à 80 000 entrees;;OUI;C;;FIXE;NON;B;216.0;175.0;149.0;63.569063989232056;25.03728764232966;8.039579468150897;3.354068900287388;86.0;23.063770962930626;43.837243;5.040229;43.837243, 5.040229
7;290063;ESPACE MAGNAN;PROVENCE-ALPES-COTE D'AZUR;31 RUE LOUIS DE COPPET;6088;Nice;346376.0;6;6701;Nice;966577.0;04-Unites urbaines de 100 000 hbts ou plus;1.0;149.0;29.0;155.0;8483.0;3649.0;132.47465058920253;De 5 à 10 000 entrees;;NON;NON;;FIXE;NON;C;61.0;6.0;0.0;38.5940816581346;11.836683730802847;43.95055562492196;5.618678986140592;49.0;69.70907728805095;43.692782;7.245773;43.692782, 7.245773
7;298142;POOM;PROVENCE-ALPES-COTE D'AZUR;CENTRE SPORTIF;5096;Orcières;696.0;5;0;Zone rurale;14908533.0;04-Unites urbaines de 100 000 hbts ou plus;2.0;244.0;28.0;893.0;8765.0;4126.0;112.43334949103247;De 5 à 10 000 entrees;;NON;NON;;FIXE;NON;R;73.0;61.0;18.0;45.86388634280477;45.577451879010084;6.633822181484876;1.924839596700275;10.0;2.612282309807516;44.708057;6.341919;44.708057, 6.341919
7;446171;CASINO;PROVENCE-ALPES-COTE D'AZUR;30 AV HENRI ISNARD;6157;Vence;19585.0;6;6701;Nice;966577.0;04-Unites urbaines de 100 000 hbts ou plus;2.0;281.0;52.0;1668.0;21730.0;13223.0;64.33487105800499;De 20 à 30 000 entrees;;OUI;C;;FIXE;NON;B;356.0;303.0;53.0;68.37918462048393;12.704200009470146;13.078270751456033;5.838344618589895;198.0;53.50158624934893;43.723214;7.110472;43.723214, 7.110472
7;224532;FOYER;PROVENCE-ALPES-COTE D'AZUR;FOYER;6075;Levens;5011.0;6;6108;Levens;5011.0;06-autres communes et unites urbaines;1.0;210.0;50.0;268.0;10199.0;4507.0;126.29243399156866;De 10 à 20 000 entrees;;NON;NON;;ITINERANT;NON;I;104.0;84.0;1.0;58.03285256410257;27.063301282051285;12.01923076923077;2.8846153846153846;27.0;27.814503205128204;43.860403;7.223268;43.860403, 7.223268
7;249581;CHAMBORD;PROVENCE-ALPES-COTE D'AZUR;283 AVENUE DU PRADO;13055;Marseille;876602.0;13;759;Marseille - Aix-en-Provence;1630325.0;04-Unites urbaines de 100 000 hbts ou plus;4.0;460.0;51.0;5620.0;82114.0;56138.0;46.27168762691938;De 80 à 100 000 entrees;AUBERT;NON;NON;;FIXE;NON;C;100.0;70.0;62.0;55.26196291159903;19.773935027797894;17.165965071611787;7.798136988991298;44.0;48.48369558547391;43.273044;5.391418;43.273044, 5.391418
7;257302;EDEN;PROVENCE-ALPES-COTE D'AZUR;11 RUE DE LA REPUBLIQUE;6083;Menton;31163.0;6;6501;Menton - Monaco (partie française);71500.0;05-Unites urbaines de 20 000 à 100 000 hbts;3.0;377.0;53.0;4539.0;60516.0;33307.0;81.69153631368782;De 50 à 80 000 entrees;;OUI;D;;FIXE;NON;C;215.0;174.0;98.0;44.753807653424815;38.480916157046025;11.019407017020502;5.74586917250866;93.0;14.642271167901358;43.775396;7.50197;43.775396, 7.50197
7;323884;L ESPACE DES ARTS;PROVENCE-ALPES-COTE D'AZUR;45 ESPLANADE DES ARTS;83098;Le Pradet;10656.0;83;757;Toulon;598427.0;04-Unites urbaines de 100 000 hbts ou plus;1.0;199.0;47.0;537.0;17378.0;7556.0;129.98941238750663;De 10 à 20 000 entrees;;OUI;C;;FIXE;NON;B;180.0;150.0;0.0;70.52170308521349;17.658553917214427;7.183040208444365;4.636702789127732;95.0;40.747320423994786;43.108927;6.020419;43.108927, 6.020419
7;439295;LE FLORIAN;PROVENCE-ALPES-COTE D'AZUR;ALLEE SAINT QUENIN;84137;Vaison-la-Romaine;6019.0;84;84203;Vaison-la-Romaine;7820.0;06-autres communes et unites urbaines;3.0;442.0;49.0;2901.0;56984.0;33756.0;68.8114705533831;De 50 à 80 000 entrees;;OUI;E;RDJPPR;FIXE;NON;C;406.0;327.0;228.0;57.69154120694965;26.454336286392376;10.228816783520843;5.625305723137127;278.0;38.69413192745982;44.244391;5.067667;44.244391, 5.067667
7;725120;MEGARAMA;PROVENCE-ALPES-COTE D'AZUR;Angle Avenue François Mitterrand et Rue de Roquebillière;6088;Nice;346376.0;6;6701;Nice;966577.0;04-Unites urbaines de 100 000 hbts ou plus;10.0;1515.0;53.0;17199.0;160108.0;7255.0;2106.8642315644383;De 150 à 200 000 entrees;MEGARAMA;NON;NON;;FIXE;OUI;C;268.0;184.0;177.0;29.17788997607086;52.09035442689084;11.656998960147332;7.0747566368909665;55.0;4.393690725265914;43.709927;7.288104;43.709927, 7.288104
7;725360;SALLE ANDRE BAGUR;PROVENCE-ALPES-COTE D'AZUR;SALLE ANDRE BAGUR;83117;Saint-Paul-en-Forêt;1813.0;83;0;Zone rurale;14908533.0;04-Unites urbaines de 100 000 hbts ou plus;1.0;120.0;15.0;77.0;1019.0;;;Moins de 2000 entrees;;NON;NON;;ITINERANT;NON;R;33.0;32.0;0.0;46.08523290386521;42.91377601585729;3.468780971258672;7.5322101090188305;10.0;44.697720515361745;43.570504;6.696977;43.570504, 6.696977
7;74322;EDEN STUDIO;PROVENCE-ALPES-COTE D'AZUR;35 RUE PASTEUR;5023;Briançon;11095.0;5;5301;Briançon;16122.0;06-autres communes et unites urbaines;1.0;88.0;52.0;1013.0;17808.0;9742.0;82.79614042291111;De 10 à 20 000 entrees;;OUI;E;RDJPPR;FIXE;NON;C;198.0;141.0;2.0;77.72811442436625;6.066023880978226;9.34167677670647;6.8641849179490455;182.0;93.22520911819169;44.889994;6.634449;44.889994, 6.634449
7;723960;CAP CINEMA MANOSQUE;PROVENCE-ALPES-COTE D'AZUR;2 ESPACE SOUBEYRAN;4112;Manosque;23689.0;4;4401;Manosque;32595.0;05-Unites urbaines de 20 000 à 100 000 hbts;8.0;1214.0;53.0;15784.0;140731.0;80938.0;73.87506486446415;De 100 à 150 000 entrees;CGR;OUI;D;JP;FIXE;OUI;C;282.0;206.0;162.0;34.55985497550553;49.1069052089403;11.747991166166706;4.5852486493874585;122.0;10.440180992871067;43.836195;5.779884;43.836195, 5.779884
7;104661;ESPACE MARCEL PAGNOL;PROVENCE-ALPES-COTE D'AZUR;RUE ERASME GUICHET;13026;Châteauneuf-les-Martigues;17883.0;13;759;Marseille - Aix-en-Provence;1630325.0;04-Unites urbaines de 100 000 hbts ou plus;1.0;120.0;44.0;1027.0;9908.0;5649.0;75.39387502212782;De 5 à 10 000 entrees;;NON;NON;;FIXE;NON;B;118.0;91.0;1.0;41.5514935354436;30.572893446277305;25.39010254123941;2.485510477039679;38.0;18.736067766384306;43.383798;5.16491;43.383798, 5.16491
7;61132;LE CLAP;PROVENCE-ALPES-COTE D'AZUR;PLACE DE LA MAIRIE;84019;Bollène;14043.0;84;84301;Bollène;14043.0;06-autres communes et unites urbaines;1.0;97.0;53.0;1236.0;16066.0;8016.0;100.42415169660677;De 10 à 20 000 entrees;;OUI;E;JP;FIXE;NON;I;288.0;235.0;6.0;57.24752475247524;25.702970297029704;9.696369636963697;7.353135313531353;154.0;31.762376237623762;43.974273;7.312365;43.974273, 7.312365
7;112826;CGR LE SPOT - LA CIOTAT;PROVENCE-ALPES-COTE D'AZUR;756 Avenue Emile Bodin;13028;La Ciotat;36812.0;13;757;Toulon;598427.0;04-Unites urbaines de 100 000 hbts ou plus;8.0;1305.0;53.0;16140.0;165255.0;27965.0;490.93509744323256;De 150 à 200 000 entrees;CGR;NON;NON;;FIXE;OUI;B;189.0;142.0;135.0;32.78402634729083;51.08980318525135;11.391435915197695;4.734734552260119;18.0;2.285335812506456;43.196379;5.59634;43.196379, 5.59634
7;138594;RENCONTRES;PROVENCE-ALPES-COTE D'AZUR;45 AVENUE DU 8 MAI;4070;Digne-les-Bains;17804.0;4;4301;Digne-les-Bains;18681.0;06-autres communes et unites urbaines;1.0;246.0;34.0;81.0;4174.0;1703.0;145.09688784497942;De 2 à 5 000 entrees;;NON;NON;;FIXE;NON;C;69.0;22.0;0.0;55.837152871393904;21.40738743596657;14.64006470746832;8.115394985171205;61.0;87.11242922620653;44.089715;6.239647;44.089715, 6.239647
7;405462;CINEMAS MARCEL PAGNOL;PROVENCE-ALPES-COTE D'AZUR;107 ROUTE DU PLAN DE LA TOUR;83115;Sainte-Maxime;14954.0;83;83310;Sainte-Maxime;19625.0;06-autres communes et unites urbaines;3.0;450.0;53.0;4391.0;104821.0;60917.0;72.07183544823283;De 100 à 150 000 entrees;;NON;NON;;FIXE;NON;C;201.0;158.0;94.0;39.79712400219014;45.632690700556175;11.359903172819227;3.210282124434454;70.0;7.339846113944843;43.32495;6.62431;43.32495, 6.62431
7;423501;LE BEGO;PROVENCE-ALPES-COTE D'AZUR;AV DU 16 SEPTEMBRE 1947;6163;Tende;2193.0;6;0;Zone rurale;14908533.0;04-Unites urbaines de 100 000 hbts ou plus;1.0;157.0;52.0;117.0;2479.0;1161.0;113.52282515073213;De 2 à 5 000 entrees;;NON;NON;;FIXE;NON;R;117.0;107.0;0.0;54.780153287615974;28.035498184751916;11.980637353771682;5.203711173860428;32.0;17.950786607503026;44.08886;7.593211;44.08886, 7.593211
7;722240;MUCEM;PROVENCE-ALPES-COTE D'AZUR;7 PROMENADE ROBERT LAFFONT;13055;Marseille;876602.0;13;759;Marseille - Aix-en-Provence;1630325.0;04-Unites urbaines de 100 000 hbts ou plus;1.0;263.0;12.0;13.0;299.0;174.0;71.83908045977012;Moins de 2000 entrees;;NON;NON;;FIXE;NON;C;12.0;0.0;0.0;29.856115107913666;56.11510791366906;8.273381294964029;5.755395683453238;5.0;43.52517985611511;43.297725;5.360374;43.297725, 5.360374
7;13413;CEZANNE;PROVENCE-ALPES-COTE D'AZUR;1 RUE MARCEL GUILLAUME;13001;Aix-en-Provence;150358.0;13;759;Marseille - Aix-en-Provence;1630325.0;04-Unites urbaines de 100 000 hbts ou plus;9.0;1539.0;53.0;13291.0;368683.0;251687.0;46.484721102003675;De 300 à 450 000 entrees;PATHE-GAUMONT;NON;NON;;FIXE;OUI;B;194.0;160.0;157.0;42.0820166815446;40.74957419891893;12.65108408133759;4.517325038198875;32.0;6.65755735307809;43.525387;5.446893;43.525387, 5.446893
7;290044;PATHE MASSENA;PROVENCE-ALPES-COTE D'AZUR;31 AVENUE JEAN MEDECIN;6088;Nice;346376.0;6;6701;Nice;966577.0;04-Unites urbaines de 100 000 hbts ou plus;7.0;1366.0;53.0;12324.0;176341.0;112274.0;57.06307782745783;De 150 à 200 000 entrees;PATHE-GAUMONT;NON;NON;;FIXE;NON;C;296.0;216.0;159.0;60.1063030793229;22.25374082847074;12.141660407880293;5.498295684326073;161.0;53.92397018891906;43.702059;7.266941;43.702059, 7.266941
7;721200;CAPITOLE STUDIO;PROVENCE-ALPES-COTE D'AZUR;AVENUE DE SAINT TRONQUET;84092;Le Pontet;17146.0;84;754;Avignon;470065.0;04-Unites urbaines de 100 000 hbts ou plus;11.0;2236.0;53.0;18030.0;504557.0;286265.0;76.25521806717552;De 450 à 700 000 entrees;AUBERT;NON;NON;;FIXE;OUI;B;247.0;195.0;188.0;28.872582464250407;54.33003204484289;13.21218221202905;3.585203278877655;39.0;3.071013838359527;43.980769;4.874683;43.980769, 4.874683
7;405509;SALLE DE CINEMA DU POLE CULTUREL;PROVENCE-ALPES-COTE D'AZUR;PLACE MALHERBE;83116;Saint-Maximin-la-Sainte-Baume;18006.0;83;83309;Saint-Maximin-la-Sainte-Baume;18006.0;06-autres communes et unites urbaines;1.0;140.0;53.0;1342.0;41095.0;21783.0;88.65629160354405;De 40 à 50 000 entrees;;NON;NON;;FIXE;NON;I;140.0;107.0;50.0;33.31940929306828;49.141214340123355;13.344964002260609;4.194412364547755;57.0;11.516819421578987;43.453509;5.860383;43.453509, 5.860383
7;440617;LE MINOTAURE;PROVENCE-ALPES-COTE D'AZUR;ESPACE LOISIRS FRANCIS HUGER BLVD JACQUES UGO;6155;Vallauris;28168.0;6;6701;Nice;966577.0;04-Unites urbaines de 100 000 hbts ou plus;1.0;388.0;8.0;10.0;1440.0;;;Moins de 2000 entrees;;NON;NON;;FIXE;NON;B;10.0;0.0;0.0;36.80555555555556;26.805555555555554;20.694444444444443;15.694444444444445;10.0;100.0;43.577577;7.055416;43.577577, 7.055416
7;23951;ACTES SUD LE MEJAN;PROVENCE-ALPES-COTE D'AZUR;23 QUAI MARX DORMOY;13004;Arles;51691.0;13;552;Arles;54491.0;05-Unites urbaines de 20 000 à 100 000 hbts;3.0;231.0;53.0;4325.0;42552.0;24271.0;75.32034114787194;De 40 à 50 000 entrees;;OUI;D;RDJPPR;FIXE;NON;C;215.0;155.0;85.0;68.12253344884012;8.29483107132544;15.015882183078254;8.566753296756184;183.0;84.8541726826451;43.678479;4.624726;43.678479, 4.624726
7;44502;LE CINEMA DE BEAULIEU;PROVENCE-ALPES-COTE D'AZUR;RUE ALBERT 1ER;6011;Beaulieu-sur-Mer;3788.0;6;6701;Nice;966577.0;04-Unites urbaines de 100 000 hbts ou plus;1.0;120.0;52.0;853.0;14590.0;8649.0;68.69002196785756;De 10 à 20 000 entrees;;OUI;C;;FIXE;NON;B;272.0;222.0;2.0;55.99122165325531;20.3218727139722;13.569861009509875;10.11704462326262;171.0;54.55742501828822;43.705177;7.329524;43.705177, 7.329524
7;164771;EDEN;PROVENCE-ALPES-COTE D'AZUR;GRAND RUE;13038;Fontvieille;3599.0;13;13106;Fontvieille;3599.0;06-autres communes et unites urbaines;1.0;135.0;51.0;533.0;8846.0;5076.0;74.27107959022851;De 5 à 10 000 entrees;;OUI;E;;FIXE;NON;I;134.0;112.0;1.0;71.34530193518303;14.793658195383538;8.801585451154114;5.059454418279319;48.0;27.17416647237118;43.726491;4.708604;43.726491, 4.708604
7;247565;SAINT-EXUPERY CINEMA;PROVENCE-ALPES-COTE D'AZUR;AVENUE JEAN MERMOZ;13054;Marignane;32735.0;13;759;Marseille - Aix-en-Provence;1630325.0;04-Unites urbaines de 100 000 hbts ou plus;2.0;252.0;53.0;2884.0;28220.0;15500.0;82.06451612903226;De 20 à 30 000 entrees;;OUI;C;;FIXE;NON;B;245.0;189.0;46.0;48.672633495145625;38.37226941747573;10.804763349514564;2.1503337378640777;137.0;23.33131067961165;43.419763;5.213706;43.419763, 5.213706
7;402493;LE GALET;PROVENCE-ALPES-COTE D'AZUR;PLACE FRANCOIS MITTERRAND;13097;Saint-Martin-de-Crau;13661.0;13;13301;Saint-Martin-de-Crau;13661.0;06-autres communes et unites urbaines;1.0;134.0;51.0;810.0;14331.0;7061.0;102.95992069112026;De 10 à 20 000 entrees;;OUI;E;;FIXE;NON;I;160.0;126.0;0.0;49.145234493192135;33.16187594553707;12.783661119515886;4.909228441754917;61.0;21.550680786686836;43.638749;4.813461;43.638749, 4.813461
7;38931;L UBAYE;PROVENCE-ALPES-COTE D'AZUR;19 RUE HENRI MERCIER;4019;Barcelonnette;2760.0;4;4106;Barcelonnette;3373.0;06-autres communes et unites urbaines;2.0;260.0;50.0;1616.0;22034.0;11883.0;85.42455608852984;De 20 à 30 000 entrees;;OUI;E;JPPR;FIXE;NON;C;202.0;154.0;31.0;47.5992438563327;36.28544423440454;9.295841209829868;6.819470699432892;102.0;23.596408317580337;44.387012;6.653653;44.387012, 6.653653
7;84761;OLYMPIA 5 A 9;PROVENCE-ALPES-COTE D'AZUR;5 RUE D ANTIBES;6029;Cannes;73159.0;6;6701;Nice;966577.0;04-Unites urbaines de 100 000 hbts ou plus;5.0;469.0;53.0;8171.0;64763.0;50797.0;27.493749630883713;De 50 à 80 000 entrees;AUBERT;NON;NON;;FIXE;NON;B;177.0;143.0;106.0;43.981274044775425;39.7246728365496;10.130865380158522;6.163187738516447;25.0;4.829813203961497;43.552366;7.016598;43.552366, 7.016598
7;119812;MAISON POURTOUS;PROVENCE-ALPES-COTE D'AZUR;MAISON POUR TOUS;6048;Contes;7612.0;6;6701;Nice;966577.0;04-Unites urbaines de 100 000 hbts ou plus;1.0;100.0;53.0;131.0;6332.0;3486.0;81.64084911072862;De 5 à 10 000 entrees;;NON;NON;;ITINERANT;NON;B;91.0;80.0;1.0;64.35565382185723;28.237523689197726;6.759317751105495;0.6475047378395451;29.0;23.973468098547063;43.803799;7.330148;43.803799, 7.330148
7;142626;MEGA CGR;PROVENCE-ALPES-COTE D'AZUR;166 PLACE DU 7EME BATAILLON;83050;Draguignan;40362.0;83;83501;Draguignan;83760.0;05-Unites urbaines de 20 000 à 100 000 hbts;7.0;1288.0;53.0;13954.0;210815.0;110154.0;91.38206510884761;De 200 à 300 000 entrees;CGR;NON;NON;;FIXE;NON;C;262.0;177.0;133.0;31.805646186894787;51.3762997327897;12.332636332026654;4.485417748288854;102.0;6.649773514267887;43.532372;6.472812;43.532372, 6.472812
7;220334;THEATRE DE VERDURE;PROVENCE-ALPES-COTE D'AZUR;AVENUE DU GRAND JARDIN;83070;Le Lavandou;6048.0;83;83308;Bormes-les-Mimosas - Le Lavandou;14984.0;06-autres communes et unites urbaines;1.0;544.0;12.0;75.0;7560.0;7811.0;-3.2134169760594022;De 5 à 10 000 entrees;;NON;NON;;FIXE;NON;B;33.0;29.0;13.0;45.17195767195767;52.301587301587304;1.67989417989418;0.8465608465608466;6.0;1.3756613756613756;43.135578;6.358877;43.135578, 6.358877
7;306453;CINEMA JEAN RENOIR;PROVENCE-ALPES-COTE D'AZUR;70 BOULEVARD VOLTAIRE;13070;PENNE-SUR-HUVEAUNE;6574.0;13;759;Marseille - Aix-en-Provence;1630325.0;04-Unites urbaines de 100 000 hbts ou plus;1.0;127.0;26.0;453.0;4642.0;3206.0;44.791016843418596;De 2 à 5 000 entrees;;NON;NON;;FIXE;NON;B;67.0;47.0;0.0;62.44880362147014;22.461737443414528;13.149385643457641;1.940073291657685;25.0;16.68463030825609;43.28176;5.511895;43.28176, 5.511895
7;429951;LE ROYAL;PROVENCE-ALPES-COTE D'AZUR;2 ET 4 RUE DU DOCTEUR;83137;Toulon;181506.0;83;757;Toulon;598427.0;04-Unites urbaines de 100 000 hbts ou plus;3.0;386.0;50.0;4569.0;80944.0;40177.0;101.46850187918459;De 80 à 100 000 entrees;;OUI;A;RDPR;FIXE;NON;C;229.0;141.0;121.0;67.0990474715403;8.577918893105139;13.163736802705284;11.159296832649268;214.0;96.90879991739591;43.124501;5.96296;43.124501, 5.96296
7;722241;CINEMA LA JOLIETTE;PROVENCE-ALPES-COTE D'AZUR;54 RUE CHANTERAC;13055;Marseille;876602.0;13;759;Marseille - Aix-en-Provence;1630325.0;04-Unites urbaines de 100 000 hbts ou plus;14.0;2083.0;53.0;20290.0;446412.0;266848.0;67.29074229523924;De 300 à 450 000 entrees;PATHE-GAUMONT;NON;NON;;FIXE;OUI;C;263.0;200.0;143.0;19.426902736052355;61.78518957534306;13.489971138496612;5.297936550107975;85.0;2.7907779435440836;43.36065;5.330055;43.36065, 5.330055
7;723560;LA BALEINE;PROVENCE-ALPES-COTE D'AZUR;59 Cours Julien;13055;Marseille;876602.0;13;759;Marseille - Aix-en-Provence;1630325.0;04-Unites urbaines de 100 000 hbts ou plus;1.0;89.0;50.0;1254.0;22383.0;13370.0;67.41211667913238;De 20 à 30 000 entrees;;OUI;A;RDJPPR;FIXE;NON;C;170.0;67.0;46.0;62.28637796582047;9.031580111719485;16.990210718433715;11.691831204026325;135.0;91.28919860627178;43.2936968;5.383868200000052;43.2936968, 5.383868200000052
7;20672;CASINO;PROVENCE-ALPES-COTE D'AZUR;6 ET 8 BD DU 24 AOUT;6004;Antibes;75779.0;6;6701;Nice;966577.0;04-Unites urbaines de 100 000 hbts ou plus;3.0;456.0;53.0;3947.0;90205.0;54740.0;64.78808914870295;De 80 à 100 000 entrees;;OUI;C;;FIXE;NON;B;201.0;155.0;100.0;45.38452092566338;39.62759128813673;10.631956150437045;4.355931635762846;97.0;16.174549838689874;43.57983;7.122516;43.57983, 7.122516
7;84734;STUDIO 13;PROVENCE-ALPES-COTE D'AZUR;23 AV DU DOCTEUR PICAUD;6029;Cannes;73159.0;6;6701;Nice;966577.0;04-Unites urbaines de 100 000 hbts ou plus;2.0;300.0;34.0;213.0;1819.0;1039.0;75.07218479307025;Moins de 2000 entrees;;OUI;C;;FIXE;NON;B;61.0;32.0;0.0;73.63737486095661;2.169076751946607;13.793103448275861;10.400444938820911;43.0;76.4182424916574;43.550716;7.001343;43.550716, 7.001343
7;165884;ODYSSEE;PROVENCE-ALPES-COTE D'AZUR;QUARTIER DU MAZETAVENUE RENE CASSIN;13039;Fos-sur-Mer;15685.0;13;759;Marseille - Aix-en-Provence;1630325.0;04-Unites urbaines de 100 000 hbts ou plus;2.0;392.0;53.0;2297.0;22750.0;13397.0;69.81413749346869;De 20 à 30 000 entrees;;OUI;C;JPPR;FIXE;NON;B;352.0;270.0;18.0;52.492325683379626;30.575451931978755;11.625980607123715;5.306241777517907;201.0;23.563806461043708;43.453954;4.943629;43.453954, 4.943629
7;188341;LE RIOUBEL;PROVENCE-ALPES-COTE D'AZUR;QUARTIER LA LONGEAGNE;5065;Guillestre;2374.0;5;5102;Guillestre;3361.0;06-autres communes et unites urbaines;1.0;185.0;51.0;858.0;9810.0;6103.0;60.740619367524175;De 5 à 10 000 entrees;;OUI;E;JP;FIXE;NON;C;169.0;132.0;18.0;52.904097253489425;31.922557406573617;9.612787032868079;5.560558307068888;79.0;31.74245835209365;44.662223;6.649662;44.662223, 6.649662
7;290032;VARIETES;PROVENCE-ALPES-COTE D'AZUR;5/7 BD VICTOR HUGO;6088;Nice;346376.0;6;6701;Nice;966577.0;04-Unites urbaines de 100 000 hbts ou plus;7.0;1108.0;53.0;12507.0;111907.0;66499.0;68.2837335899788;De 100 à 150 000 entrees;AUBERT;NON;NON;;FIXE;NON;C;158.0;130.0;127.0;49.117742283617524;34.662565652205195;11.672602345492482;4.547089718684798;23.0;8.173249874091661;43.699902;7.26609;43.699902, 7.26609
7;290388;PATHE NICE GARE DU SUD;PROVENCE-ALPES-COTE D'AZUR;PLACE DE LA GARE DU SUD;6088;Nice;346376.0;6;6701;Nice;966577.0;04-Unites urbaines de 100 000 hbts ou plus;9.0;1537.0;53.0;17370.0;428809.0;295956.0;44.88944302531457;De 300 à 450 000 entrees;PATHE-GAUMONT;NON;NON;;FIXE;OUI;C;304.0;196.0;131.0;33.877260356392455;47.08498046939265;13.499151558453157;5.53860761576174;119.0;6.418072510023832;43.709724;7.261413;43.709724, 7.261413
7;364205;SIX N'ETOILES;PROVENCE-ALPES-COTE D'AZUR;RUE DE LA REPUBLIQUE;83129;Six-Fours-les-Plages;35890.0;83;757;Toulon;598427.0;04-Unites urbaines de 100 000 hbts ou plus;4.0;568.0;53.0;6000.0;160921.0;86245.0;86.58588903704563;De 150 à 200 000 entrees;;OUI;C;JP;FIXE;NON;B;344.0;227.0;120.0;44.406043993953496;40.35413439042595;10.711843995207957;4.527977620412592;181.0;14.547359045605937;43.093086;5.83938;43.093086, 5.83938
7;399893;CINEMA MARC BARON;PROVENCE-ALPES-COTE D'AZUR;SQUARE MARC BARON;83153;Saint-Mandrier-sur-Mer;6170.0;83;757;Toulon;598427.0;04-Unites urbaines de 100 000 hbts ou plus;1.0;150.0;53.0;291.0;4711.0;2186.0;115.5077767612077;De 2 à 5 000 entrees;;OUI;C;;FIXE;NON;B;164.0;141.0;0.0;67.26152538772041;16.59230932653495;9.963883577650307;6.182281708094328;79.0;49.01210962396431;43.074223;5.927991;43.074223, 5.927991
7;409303;CINEMA LE MIDIC;PROVENCE-ALPES-COTE D'AZUR;PLACE JEAN SANTINI;13099;Saint-Paul-lès-Durance;904.0;13;0;Zone rurale;14908533.0;04-Unites urbaines de 100 000 hbts ou plus;1.0;99.0;17.0;34.0;405.0;;;Moins de 2000 entrees;;NON;NON;;FIXE;NON;R;15.0;12.0;0.0;24.691358024691358;45.925925925925924;29.38271604938272;0.0;0.0;0.0;43.687155;5.708539;43.687155, 5.708539
7;430923;RESEAU SUD LUBERON;PROVENCE-ALPES-COTE D'AZUR;43 BOULEVARD DE VERDUN;84133;La Tour-d'Aigues;4466.0;84;84108;La Tour-d'Aigues;4466.0;06-autres communes et unites urbaines;1.0;119.0;46.0;181.0;5596.0;3864.0;44.824016563147005;De 5 à 10 000 entrees;;OUI;E;;ITINERANT;NON;I;63.0;36.0;0.0;62.008384907167105;27.730085845478143;2.1960471151926533;8.065482132162108;37.0;55.46017169095629;43.726077;5.547136;43.726077, 5.547136
7;723440;CINEPLANET;PROVENCE-ALPES-COTE D'AZUR;Place Morgan;13103;Salon-de-Provence;45595.0;13;13501;Salon-de-Provence;62587.0;05-Unites urbaines de 20 000 à 100 000 hbts;9.0;1073.0;53.0;13048.0;217854.0;78043.0;179.14611175890215;De 200 à 300 000 entrees;;NON;NON;;FIXE;OUI;C;413.0;278.0;243.0;34.19372279239725;49.114442051884375;11.838977600044744;4.85285755567363;204.0;14.124183189313646;43.638856;5.094533;43.638856, 5.094533
7;106681;SALLE POLYVALENTE;PROVENCE-ALPES-COTE D'AZUR;SALLE POLYVALENTE;5039;Chauffayer;730.0;5;0;Zone rurale;14908533.0;04-Unites urbaines de 100 000 hbts ou plus;1.0;270.0;29.0;209.0;4600.0;1753.0;162.40730176839705;De 2 à 5 000 entrees;;NON;NON;;ITINERANT;NON;R;26.0;9.0;2.0;84.55917020273456;1.5794436586515792;9.476661951909476;4.384724186704385;22.0;82.83828382838284;44.76726;6.010559;44.76726, 6.010559
7;146931;CINE SAUZE;PROVENCE-ALPES-COTE D'AZUR;PLACE DE SAUZE;4073;Enchastrayes;397.0;4;0;Zone rurale;14908533.0;04-Unites urbaines de 100 000 hbts ou plus;1.0;208.0;26.0;282.0;2141.0;876.0;144.40639269406392;De 2 à 5 000 entrees;;NON;NON;;FIXE;NON;R;93.0;74.0;22.0;50.236294896030245;34.31001890359168;6.71077504725898;8.742911153119092;16.0;10.302457466918714;44.371085;6.682435;44.371085, 6.682435
7;201753;LA STRADA;PROVENCE-ALPES-COTE D'AZUR;25 BOULEVARD PAUL PONS;84054;L' Isle-sur-la-Sorgue;20531.0;84;754;Avignon;470065.0;04-Unites urbaines de 100 000 hbts ou plus;1.0;92.0;51.0;364.0;7006.0;3579.0;95.75300363229952;De 5 à 10 000 entrees;;OUI;C;;FIXE;NON;B;185.0;145.0;0.0;67.69088953756336;16.838223997541863;9.11046243662621;6.36042402826855;124.0;72.53034260255032;43.916183;5.048509;43.916183, 5.048509
7;249471;PATHE MADELEINE;PROVENCE-ALPES-COTE D'AZUR;36 AVENUE DU MARECHAL FOCH;13055;Marseille;876602.0;13;759;Marseille - Aix-en-Provence;1630325.0;04-Unites urbaines de 100 000 hbts ou plus;8.0;1358.0;53.0;12292.0;146162.0;94028.0;55.44518654017951;De 100 à 150 000 entrees;PATHE-GAUMONT;NON;NON;;FIXE;OUI;C;322.0;234.0;163.0;51.678578112977355;30.115278769435527;11.737222634289715;6.468920483297403;173.0;37.557448755363616;43.300347;5.399852;43.300347, 5.399852
4;253442;CINEMAUV;OCCITANIE;PLACE DU FOIRAL;32249;Mauvezin;2287.0;32;0;Zone rurale;14908533.0;04-Unités urbaines de 100 000 hbts ou plus;1.0;88.0;53.0;266.0;4851.0;3214.0;50.93341630367143;De 2 à 5 000 entrées;;OUI;E;;FIXE;NON;R;190.0;156.0;27.0;55.66644488800178;26.746506986027946;8.205810601020183;9.3812375249501;84.0;64.87025948103793;43.731827;0.878411;43.731827, 0.878411
6;721000;UGC CINE CITE CONFLUENCE;AUVERGNE-RHONE-ALPES;1 RUE MONTROCHET;69123;Lyon;528633.0;69;758;Lyon;1720030.0;04-Unités urbaines de 100 000 hbts ou plus;14.0;3457.0;53.0;25764.0;435129.0;307521.0;41.49570273249632;De 300 à 450 000 entrées;UGC;NON;NON;;FIXE;OUI;C;291.0;208.0;178.0;37.3786519544634;44.66160704417345;14.139695317393066;3.8200456839700845;145.0;17.48609217846222;45.738623;4.82112;45.738623, 4.82112
4;721750;CGR ALBI;OCCITANIE;PLACE DE L'AMITIE ENTRE LES PEUP;81004;Albi;50783.0;81;81502;Albi;77115.0;05-Unités urbaines de 20 000 à 100 000 hbts;8.0;1533.0;53.0;15370.0;173506.0;106241.0;63.31359832832899;De 150 à 200 000 entrées;CGR;NON;NON;;FIXE;OUI;C;197.0;160.0;156.0;36.96893565283532;48.01230818874861;11.46805114582553;3.5507050125905395;23.0;3.168667131489026;43.923796;2.144604;43.923796, 2.144604
6;324021;LE PARC;AUVERGNE-RHONE-ALPES;RUE DU GRAND COULOIR;73206;Pralognan-la-Vanoise;734.0;73;0;Zone rurale;14908533.0;04-Unités urbaines de 100 000 hbts ou plus;1.0;150.0;32.0;311.0;4330.0;2725.0;58.89908256880734;De 2 à 5 000 entrées;;NON;NON;;FIXE;NON;R;116.0;103.0;29.0;52.12319178721418;38.91740550629958;6.1829211385907605;2.7764815678954737;32.0;10.21931871208586;45.381523;6.722351;45.381523, 6.722351
6;709650;ESPACE LUMIERE;AUVERGNE-RHONE-ALPES;PLACE LANGLADE;42011;Balbigny;2892.0;42;42105;Balbigny;4133.0;06-autres communes et unités urbaines;1.0;258.0;47.0;270.0;5468.0;3677.0;48.70818602121294;De 5 à 10 000 entrées;;OUI;E;;FIXE;NON;C;162.0;128.0;1.0;71.55088538626192;17.474216773691378;7.122008172796264;3.852889667250438;71.0;25.608094960108968;45.817369;4.183976;45.817369, 4.183976
